stop_id,stop_code,stop_name,stop_desc,stop_lat,stop_lon,zone_id,stop_url,location_type,parent_station,stop_timezone
101614,1395,Kuivala E,,65.174872,25.576205,4,http://oulunliikenne.fi/1395,0,,Europe/Helsinki
101635,1486,Haipuskylä P,,65.134743,25.694296,3,http://oulunliikenne.fi/1486,0,,Europe/Helsinki
150157,2580,Pitkäkankaantie E,,64.94142,25.39673,3,http://oulunliikenne.fi/2580,0,,Europe/Helsinki
310719,4012,Liikkujantie E,,65.00197642616308,25.60864894740764,2,http://oulunliikenne.fi/4012,0,,Europe/Helsinki
121535,2009,Kalliola E,,65.02523100000002,25.487032,2,http://oulunliikenne.fi/2009,0,,Europe/Helsinki
189531,2942,Koivikko P,,64.816295,25.967353,4,http://oulunliikenne.fi/2942,0,,Europe/Helsinki
101705,1147,Pajarinperä E,,65.321511,25.545624,4,http://oulunliikenne.fi/1147,0,,Europe/Helsinki
169586,3117,Toppilansaarentie E2,,65.032039,25.42602,2,http://oulunliikenne.fi/3117,0,,Europe/Helsinki
101062,2691,Kempeleen yläaste P,,64.917046,25.477238,3,http://oulunliikenne.fi/2691,0,,Europe/Helsinki
98777,2977,Muhoksen keskusta E,,64.80723500000002,25.994831,4,http://oulunliikenne.fi/2977,0,,Europe/Helsinki
150058,2813,Ketolanperä P,,64.869575,25.587953,3,http://oulunliikenne.fi/2813,0,,Europe/Helsinki
301593,2768,Ketolanperäntie,,64.894887,25.546434,3,http://oulunliikenne.fi/2768,0,,Europe/Helsinki
184256,1224,Rajala P,,65.303567,25.54908,4,http://oulunliikenne.fi/1224,0,,Europe/Helsinki
307190,3321,Ritakierros E,,65.08381300000002,25.453834,2,http://oulunliikenne.fi/3321,0,,Europe/Helsinki
148495,1197,Jakkila E,,65.316217,25.350254,4,http://oulunliikenne.fi/1197,0,,Europe/Helsinki
183955,3174,Pesätie P,,64.952362,25.536037,2,http://oulunliikenne.fi/3174,0,,Europe/Helsinki
101524,1461,Luostarinvainio E,,65.146475,25.35153,3,http://oulunliikenne.fi/1461,0,,Europe/Helsinki
98804,8222,Parpala P,,64.7777,26.2948,5,http://oulunliikenne.fi/8222,0,,Europe/Helsinki
307136,3072,Lumijoen peruskoulu P,,64.84181700000002,25.179769,4,http://oulunliikenne.fi/3072,0,,Europe/Helsinki
101688,1177,Iin terveyskeskus P,,65.31923500000002,25.408156,4,http://oulunliikenne.fi/1177,0,,Europe/Helsinki
189729,2804,Laivurintie E,,64.87035,25.887555,4,http://oulunliikenne.fi/2804,0,,Europe/Helsinki
121087,2481,Kuukkelitie P,,64.96021,25.556948,2,http://oulunliikenne.fi/2481,0,,Europe/Helsinki
120930,2291,Suohaukka E,,64.98845,25.522958,2,http://oulunliikenne.fi/2291,0,,Europe/Helsinki
97687,1368,Jokela P,,65.182876,25.500822,4,http://oulunliikenne.fi/1368,0,,Europe/Helsinki
188710,3329,Susitie P,,65.033137,25.474909,2,http://oulunliikenne.fi/3329,0,,Europe/Helsinki
150071,2862,Bask E,,64.849524,25.636842,3,http://oulunliikenne.fi/2862,0,,Europe/Helsinki
309976,3391,Ritaharjun koulu E,,65.080248,25.456944,2,http://oulunliikenne.fi/3391,0,,Europe/Helsinki
101663,1652,Huttukylä th P,,65.079691,25.847289,3,http://oulunliikenne.fi/1652,0,,Europe/Helsinki
120687,1981,Nallikari P,,65.02825,25.415567,2,http://oulunliikenne.fi/1981,0,,Europe/Helsinki
98499,1621,Hamari P,,65.0889,25.676549,3,http://oulunliikenne.fi/1621,0,,Europe/Helsinki
307210,1957,Loimukoivunpuisto E,,65.03179657000167,25.56042662487392,2,http://oulunliikenne.fi/1957,0,,Europe/Helsinki
120358,1576,Lappotie E,,65.112915,25.33549,3,http://oulunliikenne.fi/1576,0,,Europe/Helsinki
101714,1215,Jakkukylä E,,65.309685,25.614854,4,http://oulunliikenne.fi/1215,0,,Europe/Helsinki
148099,2349,Eskelisentie E,,64.97885,25.628099,2,http://oulunliikenne.fi/2349,0,,Europe/Helsinki
120429,1632,Järvitie P,,65.08452,25.698715,3,http://oulunliikenne.fi/1632,0,,Europe/Helsinki
101097,8311,Potti E,,65.0599,24.8785,5,http://oulunliikenne.fi/8311,0,,Europe/Helsinki
169658,3094,Peuraniemi E,,64.830963,25.687692,4,http://oulunliikenne.fi/3094,0,,Europe/Helsinki
120945,2312,Kolehmaisentie P,,64.985344,25.577291,2,http://oulunliikenne.fi/2312,0,,Europe/Helsinki
190175,2579,Koura P,,64.940766,25.425393,3,http://oulunliikenne.fi/2579,0,,Europe/Helsinki
190222,2561,Lassila E,,64.945394,25.399158,3,http://oulunliikenne.fi/2561,0,,Europe/Helsinki
101011,2940,Hirvasniemi P,,64.825883,25.252645,4,http://oulunliikenne.fi/2940,0,,Europe/Helsinki
190168,2523,Lentokentän th E2,,64.955232,25.503347,2,http://oulunliikenne.fi/2523,0,,Europe/Helsinki
97713,1236,Liedes E,,65.30107700000002,25.374512,4,http://oulunliikenne.fi/1236,0,,Europe/Helsinki
120455,1681,Kuuselantie E,,65.077101,25.398012,2,http://oulunliikenne.fi/1681,0,,Europe/Helsinki
120756,2061,Kuparilammintie P,,65.017144,25.543478,2,http://oulunliikenne.fi/2061,0,,Europe/Helsinki
120842,2178,OYS asunnot P,,65.002921800294,25.52585884066798,2,http://oulunliikenne.fi/2178,0,,Europe/Helsinki
120626,1876,Menninkäisentie E,,65.043229,25.479259,2,http://oulunliikenne.fi/1876,0,,Europe/Helsinki
300419,1796,Puulinnanmaa P,,65.055656,25.462143,2,http://oulunliikenne.fi/1796,0,,Europe/Helsinki
120822,2151,Ratakatu P,,65.00718000000002,25.483325,2,http://oulunliikenne.fi/2151,0,,Europe/Helsinki
98782,2994,Leppiniemi th E,,64.80512400000002,26.011768,4,http://oulunliikenne.fi/2994,0,,Europe/Helsinki
101555,1800,Keulapuisto E,,65.055655,25.443515,2,http://oulunliikenne.fi/1800,0,,Europe/Helsinki
121089,2482,Sadekuja P,,64.959767,25.552971,2,http://oulunliikenne.fi/2482,0,,Europe/Helsinki
120974,2342,Jättikivenkatu E,,64.981835,25.569617,2,http://oulunliikenne.fi/2342,0,,Europe/Helsinki
120395,1616,Timolantie P,,65.09424300000002,25.420599,2,http://oulunliikenne.fi/1616,0,,Europe/Helsinki
190180,8320,Päätalo P,,65.0536,24.7926,5,http://oulunliikenne.fi/8320,0,,Europe/Helsinki
150082,2929,Aaltomaa P,,64.825558,25.688228,4,http://oulunliikenne.fi/2929,0,,Europe/Helsinki
101736,1089,Kaisto P (PP),,65.346367,25.746334,5,http://oulunliikenne.fi/1089,0,,Europe/Helsinki
120317,1528,Sammaloja E,,65.125016,25.755118,3,http://oulunliikenne.fi/1528,0,,Europe/Helsinki
101671,8004,Ruunakangas P,,65.14776500000002,25.782307,3,http://oulunliikenne.fi/8004,0,,Europe/Helsinki
101130,8345,Kittiläntie P,,65.0081,24.6881,5,http://oulunliikenne.fi/8345,0,,Europe/Helsinki
120606,1856,Tuiskutie P,,65.044352,25.588311,2,http://oulunliikenne.fi/1856,0,,Europe/Helsinki
101269,1849,Lamu P,,65.04053500000002,25.888684,4,http://oulunliikenne.fi/1849,0,,Europe/Helsinki
101517,1428,Viikki P,,65.167293,25.347847,3,http://oulunliikenne.fi/1428,0,,Europe/Helsinki
98792,8209,Torpparintie P,,64.7923,26.0921,5,http://oulunliikenne.fi/8209,0,,Europe/Helsinki
101653,1524,Korkeamaantie P,,65.12382700000002,25.792873,3,http://oulunliikenne.fi/1524,0,,Europe/Helsinki
101036,3023,Myllykuja E,,64.808148,25.392719,4,http://oulunliikenne.fi/3023,0,,Europe/Helsinki
120721,2024,Yrjänäntie P,,65.02345800000002,25.530465,2,http://oulunliikenne.fi/2024,0,,Europe/Helsinki
150158,2575,Pitkäkankaantie P2,,64.942396,25.397327,3,http://oulunliikenne.fi/2575,0,,Europe/Helsinki
121035,2420,Heikkilänkangas E,,64.96853400000002,25.607832,2,http://oulunliikenne.fi/2420,0,,Europe/Helsinki
120641,1917,Tupasvillatie P,,65.036743,25.573916,2,http://oulunliikenne.fi/1917,0,,Europe/Helsinki
183967,3180,Savotta-aukio P,,64.944861,25.572923,2,http://oulunliikenne.fi/3180,0,,Europe/Helsinki
190215,2884,Tupoksentie P,,64.84267800000002,25.474214,4,http://oulunliikenne.fi/2884,0,,Europe/Helsinki
101099,8313,Pököntien th P,,65.0612,24.8671,5,http://oulunliikenne.fi/8313,0,,Europe/Helsinki
101262,1883,Jääkärintie E,,65.038962,25.702338,3,http://oulunliikenne.fi/1883,0,,Europe/Helsinki
309968,2549,Kaislaranta E,,64.953067,25.393227,3,http://oulunliikenne.fi/2549,0,,Europe/Helsinki
120981,2353,Kangasrinne E,,64.978743,25.582176,2,http://oulunliikenne.fi/2353,0,,Europe/Helsinki
97686,2944,Temmesjoki E,,64.823263,25.450753,4,http://oulunliikenne.fi/2944,0,,Europe/Helsinki
148110,2431,Peräkylä th P,,64.963079,25.691004,3,http://oulunliikenne.fi/2431,0,,Europe/Helsinki
101073,2428,Väliranta P,,64.968099,25.356949,3,http://oulunliikenne.fi/2428,0,,Europe/Helsinki
98734,2726,Harakkamäki E,,64.905514,25.789765,3,http://oulunliikenne.fi/2726,0,,Europe/Helsinki
120786,2098,Raksila P,,65.011819,25.490549,2,http://oulunliikenne.fi/2098,0,,Europe/Helsinki
150095,3044,Korkala E,,64.786517,25.693449,4,http://oulunliikenne.fi/3044,0,,Europe/Helsinki
120713,2013,Merikoskenkatu E2,,65.024726,25.469128,2,http://oulunliikenne.fi/2013,0,,Europe/Helsinki
190196,1573,Holstinmäki P,,65.114515,25.381683,3,http://oulunliikenne.fi/1573,0,,Europe/Helsinki
101533,1556,Hietalanmäki P,,65.119458,25.375036,3,http://oulunliikenne.fi/1556,0,,Europe/Helsinki
190227,2447,Santaniemi P,,64.968329,25.25854,3,http://oulunliikenne.fi/2447,0,,Europe/Helsinki
150090,3000,Tulilanton th P,,64.806383,25.707242,4,http://oulunliikenne.fi/3000,0,,Europe/Helsinki
120374,1594,Seelannintie E,,65.09893,25.419363,2,http://oulunliikenne.fi/1594,0,,Europe/Helsinki
148189,2803,Laivurintie P,,64.870732,25.887117,4,http://oulunliikenne.fi/2803,0,,Europe/Helsinki
98737,2765,Oulun ja Muhoksen raja P,,64.892815,25.807969,4,http://oulunliikenne.fi/2765,0,,Europe/Helsinki
121077,2470,Kivitaskunkuja E,,64.96114,25.559502,2,http://oulunliikenne.fi/2470,0,,Europe/Helsinki
184257,1223,Rajala E,,65.303438,25.54868,4,http://oulunliikenne.fi/1223,0,,Europe/Helsinki
121215,2646,Lentoasema,,64.928551,25.374482,3,http://oulunliikenne.fi/2646,0,,Europe/Helsinki
120830,2163,Sarkkapuisto E,,65.005113,25.529629,2,http://oulunliikenne.fi/2163,0,,Europe/Helsinki
101515,1424,Revontie P,,65.172083,25.350238,3,http://oulunliikenne.fi/1424,0,,Europe/Helsinki
120741,2046,Koivumaantien ostoskeskus P,,65.019639,25.551914,2,http://oulunliikenne.fi/2046,0,,Europe/Helsinki
189278,3341,Tyrnävä,,64.764546,25.651217,4,http://oulunliikenne.fi/3341,0,,Europe/Helsinki
148174,2757,Roininen E,,64.89341400000002,25.853427,4,http://oulunliikenne.fi/2757,0,,Europe/Helsinki
150375,1166,Haminan koulu P,,65.322759,25.375213,4,http://oulunliikenne.fi/1166,0,,Europe/Helsinki
150376,1165,Haminan koulu E,,65.322701,25.373993,4,http://oulunliikenne.fi/1165,0,,Europe/Helsinki
301899,2230,Knuutilanranta E,,64.995778,25.558633,2,http://oulunliikenne.fi/2230,0,,Europe/Helsinki
101272,1847,Ahmasjärventie E,,65.039599,25.901653,4,http://oulunliikenne.fi/1847,0,,Europe/Helsinki
148226,2863,Montan leirintäalue E,,64.842458,26.007658,4,http://oulunliikenne.fi/2863,0,,Europe/Helsinki
189585,8220,Uutela P,,64.7819,26.2649,5,http://oulunliikenne.fi/8220,0,,Europe/Helsinki
185120,2687,Linnakangastalo P,,64.923112,25.557633,3,http://oulunliikenne.fi/2687,0,,Europe/Helsinki
150051,2790,Kerttula E,,64.886821,25.563866,3,http://oulunliikenne.fi/2790,0,,Europe/Helsinki
307139,2239,Tyrnäväntie E,,64.996054,25.458278,1,http://oulunliikenne.fi/2239,0,,Europe/Helsinki
101233,3053,Kotimetsä P,,64.775393,25.679248,4,http://oulunliikenne.fi/3053,0,,Europe/Helsinki
150368,1322,Kiimingintien th P,,65.193378,25.447562,4,http://oulunliikenne.fi/1322,0,,Europe/Helsinki
101549,1709,Kuivasojan koulu E,,65.07264600000002,25.409314,2,http://oulunliikenne.fi/1709,0,,Europe/Helsinki
120795,2108,OYS E,,65.0108,25.518753,2,http://oulunliikenne.fi/2108,0,,Europe/Helsinki
98765,2902,Huovisentie E,,64.82933800000002,25.923079,4,http://oulunliikenne.fi/2902,0,,Europe/Helsinki
101643,1481,Lukkarintie P,,65.13318700000002,25.752839,3,http://oulunliikenne.fi/1481,0,,Europe/Helsinki
101528,1517,Isohätälä E,,65.131715,25.357922,3,http://oulunliikenne.fi/1517,0,,Europe/Helsinki
190427,3337,Zeppelinin ramppi P,,64.904454,25.536684,3,http://oulunliikenne.fi/3337,0,,Europe/Helsinki
120809,2126,Linja-autoasema P,,65.008839,25.484227,2,http://oulunliikenne.fi/2126,0,,Europe/Helsinki
187987,2542,Lepola E,,64.951872,25.508297,2,http://oulunliikenne.fi/2542,0,,Europe/Helsinki
148122,2526,Turkka P,,64.94967800000002,25.729558,3,http://oulunliikenne.fi/2526,0,,Europe/Helsinki
150355,1267,Ukkolanperän th E2,,65.2295,25.361,3,http://oulunliikenne.fi/1267,0,,Europe/Helsinki
183968,3181,Lähimetsä P,,64.946576,25.57023,2,http://oulunliikenne.fi/3181,0,,Europe/Helsinki
98711,2441,Konttisenkangas E,,64.963341,25.635224,2,http://oulunliikenne.fi/2441,0,,Europe/Helsinki
101080,2397,Kelanmutka P,,64.974212,25.308192,3,http://oulunliikenne.fi/2397,0,,Europe/Helsinki
152751,1805,Puuperäntie P,,65.051633,25.627437,2,http://oulunliikenne.fi/1805,0,,Europe/Helsinki
116064,2180,Harjapuisto E,,65.00335,25.463291,2,http://oulunliikenne.fi/2180,0,,Europe/Helsinki
121055,2445,Jousenkaari E,,64.96558400000002,25.537644,2,http://oulunliikenne.fi/2445,0,,Europe/Helsinki
120753,2058,Nahkatehtaankatu P,,65.019473,25.485385,2,http://oulunliikenne.fi/2058,0,,Europe/Helsinki
121041,2427,Väliranta E,,64.968705,25.3549,3,http://oulunliikenne.fi/2427,0,,Europe/Helsinki
153149,3027,Värminkosken th P2,,64.807362,25.398807,4,http://oulunliikenne.fi/3027,0,,Europe/Helsinki
120755,2060,Raatti P,,65.020482,25.468162,2,http://oulunliikenne.fi/2060,0,,Europe/Helsinki
189586,8233,Kotikuja P,,64.7747,26.3998,5,http://oulunliikenne.fi/8233,0,,Europe/Helsinki
148489,1209,Partanen P,,65.310196,25.590652,4,http://oulunliikenne.fi/1209,0,,Europe/Helsinki
97706,1255,Hätälä P,,65.269741,25.362947,4,http://oulunliikenne.fi/1255,0,,Europe/Helsinki
101743,1075,Keskikylä P,,65.359816,25.781775,5,http://oulunliikenne.fi/1075,0,,Europe/Helsinki
189530,2919,Tyrnävän th P,,64.824007,25.937719,4,http://oulunliikenne.fi/2919,0,,Europe/Helsinki
120707,2006,Laamannintie E,,65.02371,25.513348,2,http://oulunliikenne.fi/2006,0,,Europe/Helsinki
148097,2311,Sanginjoen th E,,64.983375,25.618777,2,http://oulunliikenne.fi/2311,0,,Europe/Helsinki
101534,1557,Hietalanmäki E,,65.119235,25.375092,3,http://oulunliikenne.fi/1557,0,,Europe/Helsinki
120986,2359,Kivipellon aukio P,,64.977563,25.586348,2,http://oulunliikenne.fi/2359,0,,Europe/Helsinki
171807,2347,Joulumerkinpolku P,,64.981077,25.483702,2,http://oulunliikenne.fi/2347,0,,Europe/Helsinki
183984,3197,Kuivasrannanaukio P,,65.076187,25.452713,2,http://oulunliikenne.fi/3197,0,,Europe/Helsinki
120083,1276,Heinonpolku E,,65.222033,25.300878,3,http://oulunliikenne.fi/1276,0,,Europe/Helsinki
308266,2751,Kitulankuja E,,64.900503,25.542368,3,http://oulunliikenne.fi/2751,0,,Europe/Helsinki
120544,1770,Yliopisto P,,65.058942,25.469927,2,http://oulunliikenne.fi/1770,0,,Europe/Helsinki
120519,1745,Kukkonen E,,65.062598,25.495156,2,http://oulunliikenne.fi/1745,0,,Europe/Helsinki
120503,1729,Poukamapolku P,,65.06672500000002,25.499663,2,http://oulunliikenne.fi/1729,0,,Europe/Helsinki
101040,3138,Lumijoentie E,,64.806566,25.410069,4,http://oulunliikenne.fi/3138,0,,Europe/Helsinki
120823,2152,Teuvo Pakkala P,,65.006364,25.486997,2,http://oulunliikenne.fi/2152,0,,Europe/Helsinki
101294,1913,Ukonkangas E,,65.02990800000002,26.114857,4,http://oulunliikenne.fi/1913,0,,Europe/Helsinki
121326,2878,Murron koulu P,,64.841903,25.670044,4,http://oulunliikenne.fi/2878,0,,Europe/Helsinki
164367,3106,Nupputie E,,65.072948,25.459705,2,http://oulunliikenne.fi/3106,0,,Europe/Helsinki
120371,1591,Valkoherukkatie P,,65.100314,25.41445,2,http://oulunliikenne.fi/1591,0,,Europe/Helsinki
120788,2100,Rautatieasema E,,65.01216100000002,25.48353,2,http://oulunliikenne.fi/2100,0,,Europe/Helsinki
98484,1819,Alavantie P,,65.048874,25.589262,2,http://oulunliikenne.fi/1819,0,,Europe/Helsinki
120702,2000,Etupääntie E,,65.024232,25.564907,2,http://oulunliikenne.fi/2000,0,,Europe/Helsinki
150163,2544,Karhuoja P,,64.951312,25.390593,3,http://oulunliikenne.fi/2544,0,,Europe/Helsinki
121067,2459,Kuukkelipolku P,,64.963812,25.549153,2,http://oulunliikenne.fi/2459,0,,Europe/Helsinki
148037,3084,Veturitie E,,64.801625,26.012948,4,http://oulunliikenne.fi/3084,0,,Europe/Helsinki
121166,2581,Pitkäkankaantie P,,64.941971,25.395364,3,http://oulunliikenne.fi/2581,0,,Europe/Helsinki
148086,2067,Hiukkavaara E,,65.015109,25.564061,2,http://oulunliikenne.fi/2067,0,,Europe/Helsinki
169623,2512,Kaakkurin koulu E,,64.955534,25.532879,2,http://oulunliikenne.fi/2512,0,,Europe/Helsinki
183963,3178,Ostomiehentie P,,64.94781,25.542063,2,http://oulunliikenne.fi/3178,0,,Europe/Helsinki
121327,2979,Muhos,,64.80663798335156,25.99103755844336,4,http://oulunliikenne.fi/2979,0,,Europe/Helsinki
184041,2131,Virastotalo,,65.010214,25.465102,2,http://oulunliikenne.fi/2131,0,,Europe/Helsinki
120423,1645,Kaijantie E,,65.088622,25.41087,2,http://oulunliikenne.fi/1645,0,,Europe/Helsinki
120865,2203,Svaanintie P,,64.99997500000002,25.532647,2,http://oulunliikenne.fi/2203,0,,Europe/Helsinki
148009,3037,Kasvi E,,64.793245,25.624873,4,http://oulunliikenne.fi/3037,0,,Europe/Helsinki
148430,1361,Pentintie P,,65.184006,25.490981,4,http://oulunliikenne.fi/1361,0,,Europe/Helsinki
101504,1280,Taatanperän th E,,65.215464,25.369552,3,http://oulunliikenne.fi/1280,0,,Europe/Helsinki
98781,2993,Leppiniemi th P,,64.805029,26.012192,4,http://oulunliikenne.fi/2993,0,,Europe/Helsinki
101672,1070,Yli-Iin vanhainkoti E,,65.36241200000002,25.821759,5,http://oulunliikenne.fi/1070,0,,Europe/Helsinki
120302,1507,Sammalkuja P,,65.12864,25.76266,3,http://oulunliikenne.fi/1507,0,,Europe/Helsinki
150318,1407,Herralankuja E,,65.177035,25.348564,3,http://oulunliikenne.fi/1407,0,,Europe/Helsinki
101092,8306,Vaski E,,65.03530000000002,24.9765,5,http://oulunliikenne.fi/8306,0,,Europe/Helsinki
120287,1492,Viitanmäki E,,65.131179,25.765951,3,http://oulunliikenne.fi/1492,0,,Europe/Helsinki
148046,2941,Toivolakoti P,,64.81711039759502,26.03101747076533,4,http://oulunliikenne.fi/2941,0,,Europe/Helsinki
101276,1930,Hautasuo th E,,65.030666,25.971211,4,http://oulunliikenne.fi/1930,0,,Europe/Helsinki
101086,2356,Pajuniemi E,,64.982373,25.270362,3,http://oulunliikenne.fi/2356,0,,Europe/Helsinki
120710,2011,Myllytie E,,65.025272,25.476886,2,http://oulunliikenne.fi/2011,0,,Europe/Helsinki
148459,1300,Vahtola E,,65.206689,25.331009,3,http://oulunliikenne.fi/1300,0,,Europe/Helsinki
101120,8335,Rantatien th P,,65.02,24.7411,5,http://oulunliikenne.fi/8335,0,,Europe/Helsinki
150083,2928,Aaltomaa E,,64.825074,25.688252,4,http://oulunliikenne.fi/2928,0,,Europe/Helsinki
190202,1568,Oikoreitti P,,65.07014,25.8558,3,http://oulunliikenne.fi/1568,0,,Europe/Helsinki
98703,2343,Maikkulantien th P,,64.98028100000002,25.563747,2,http://oulunliikenne.fi/2343,0,,Europe/Helsinki
120509,1735,Kerttulanpuisto P,,65.064718,25.507151,2,http://oulunliikenne.fi/1735,0,,Europe/Helsinki
101237,8084,Ala-Siira E,,64.779382,25.71222,4,http://oulunliikenne.fi/8084,0,,Europe/Helsinki
98501,1597,Jääli th P,,65.094678,25.682666,3,http://oulunliikenne.fi/1597,0,,Europe/Helsinki
101271,1848,Ahmasjärventie P,,65.039818,25.89967,4,http://oulunliikenne.fi/1848,0,,Europe/Helsinki
120409,1631,Kaarnalenkki P,,65.084891,25.71467,3,http://oulunliikenne.fi/1631,0,,Europe/Helsinki
150360,1278,Häyrysenniemi th E,,65.219867,25.333386,3,http://oulunliikenne.fi/1278,0,,Europe/Helsinki
152760,1841,Polvisuontie P,,65.045596,25.64718,2,http://oulunliikenne.fi/1841,0,,Europe/Helsinki
171800,2412,Vesalantie E,,64.970997,25.491178,2,http://oulunliikenne.fi/2412,0,,Europe/Helsinki
171360,2716,Kempele E,,64.912087,25.505816,3,http://oulunliikenne.fi/2716,0,,Europe/Helsinki
120619,1855,Nietospolku P,,65.042673,25.594835,2,http://oulunliikenne.fi/1855,0,,Europe/Helsinki
120086,1283,Laitakarintie P,,65.216516,25.300078,3,http://oulunliikenne.fi/1283,0,,Europe/Helsinki
171811,2415,Keskipiiri E,,64.973233,25.328843,3,http://oulunliikenne.fi/2415,0,,Europe/Helsinki
148447,1336,Keiska P2,,65.192892,25.366178,3,http://oulunliikenne.fi/1336,0,,Europe/Helsinki
150357,1269,Parkumäki P,,65.227536,25.353539,3,http://oulunliikenne.fi/1269,0,,Europe/Helsinki
310860,3405,Siiposuo E,,65.086763,25.463952,2,http://oulunliikenne.fi/3405,0,,Europe/Helsinki
101104,8318,Hyypänmäki E,,65.057,24.8041,5,http://oulunliikenne.fi/8318,0,,Europe/Helsinki
98760,2881,Rönköntie P,,64.837424,25.908785,4,http://oulunliikenne.fi/2881,0,,Europe/Helsinki
101610,1399,Taipaleenkylä,,65.17568300000002,25.554051,4,http://oulunliikenne.fi/1399,0,,Europe/Helsinki
184174,3215,Kaupungintalo City,,65.013648,25.471948,1,http://oulunliikenne.fi/3215,0,,Europe/Helsinki
183961,3176,Ukkoherrantie P,,64.950017,25.543868,2,http://oulunliikenne.fi/3176,0,,Europe/Helsinki
150356,1268,Parkumäki E,,65.227718,25.353763,3,http://oulunliikenne.fi/1268,0,,Europe/Helsinki
121505,1925,Lämpövoimala E,,65.03790600000002,25.44317,2,http://oulunliikenne.fi/1925,0,,Europe/Helsinki
231937,3317,Onkamontie P,,65.191765,25.474843,4,http://oulunliikenne.fi/3317,0,,Europe/Helsinki
120410,1651,Järvitie E,,65.084441,25.69891,3,http://oulunliikenne.fi/1651,0,,Europe/Helsinki
150060,2817,Rasila P,,64.867074,25.597599,3,http://oulunliikenne.fi/2817,0,,Europe/Helsinki
120772,2081,Peltola E,,65.01301,25.526267,2,http://oulunliikenne.fi/2081,0,,Europe/Helsinki
101235,8082,Haarankauppa I,,64.782948,25.6929,4,http://oulunliikenne.fi/8082,0,,Europe/Helsinki
101530,1522,Kello E,,65.129341,25.359027,3,http://oulunliikenne.fi/1522,0,,Europe/Helsinki
150256,1728,Kivikankaankuja E,,65.06587500000002,25.517054,2,http://oulunliikenne.fi/1728,0,,Europe/Helsinki
150362,1284,Martinniemi th P,,65.214315,25.331063,3,http://oulunliikenne.fi/1284,0,,Europe/Helsinki
121054,2444,Tiaisrinne P,,64.964347,25.555306,2,http://oulunliikenne.fi/2444,0,,Europe/Helsinki
307145,3362,Miessuontie P,,64.93050700000002,25.563641,3,http://oulunliikenne.fi/3362,0,,Europe/Helsinki
304237,2177,Professorintie E,,65.010069,25.506905,2,http://oulunliikenne.fi/2177,0,,Europe/Helsinki
183970,3191,Lähimetsäntie P,,64.948529,25.565301,2,http://oulunliikenne.fi/3191,0,,Europe/Helsinki
120623,1873,Järvenkorventie P,,65.041794,25.49875,2,http://oulunliikenne.fi/1873,0,,Europe/Helsinki
184142,3247,Kiviharjunkuja P,,65.008324,25.513313,1,http://oulunliikenne.fi/3247,0,,Europe/Helsinki
169845,3143,Pikku Karhu E,,65.041026,25.612461,2,http://oulunliikenne.fi/3143,0,,Europe/Helsinki
120782,2094,Kontinkangas P,,65.011775,25.514818,2,http://oulunliikenne.fi/2094,0,,Europe/Helsinki
184143,3246,Kiviharjunkuja E,,65.008436,25.512861,1,http://oulunliikenne.fi/3246,0,,Europe/Helsinki
98773,2943,Koivikko E,,64.815684,25.968387,4,http://oulunliikenne.fi/2943,0,,Europe/Helsinki
187974,1919,Huonesuo th P,,65.037482,25.552794,2,http://oulunliikenne.fi/1919,0,,Europe/Helsinki
120522,1748,Kukkonen P,,65.062472,25.495184,2,http://oulunliikenne.fi/1748,0,,Europe/Helsinki
150381,1186,Ellala P,,65.319356,25.360058,4,http://oulunliikenne.fi/1186,0,,Europe/Helsinki
148196,2823,Määttä Könö P,,64.85938,25.90469,4,http://oulunliikenne.fi/2823,0,,Europe/Helsinki
120904,2250,Sorsatie E,,64.993505,25.495483,2,http://oulunliikenne.fi/2250,0,,Europe/Helsinki
120751,2040,Koskenniska P,,65.020352,25.493356,2,http://oulunliikenne.fi/2040,0,,Europe/Helsinki
307146,3363,Miessuontie E,,64.930071,25.562932,3,http://oulunliikenne.fi/3363,0,,Europe/Helsinki
101076,2414,Heikola E,,64.971986,25.344913,3,http://oulunliikenne.fi/2414,0,,Europe/Helsinki
148017,3063,Ahintie E,,64.769567,25.646973,4,http://oulunliikenne.fi/3063,0,,Europe/Helsinki
120723,2027,Nokkalantie E,,65.023575,25.505206,2,http://oulunliikenne.fi/2027,0,,Europe/Helsinki
97720,1162,Iin Hamina E,,65.321703,25.37794,4,http://oulunliikenne.fi/1162,0,,Europe/Helsinki
148176,2771,Käpykankaantie P,,64.887716,25.861397,4,http://oulunliikenne.fi/2771,0,,Europe/Helsinki
120583,1816,Suolamännyntie P,,65.053021,25.430135,2,http://oulunliikenne.fi/1816,0,,Europe/Helsinki
101081,2400,Ervastinkylä P,,64.973906,25.301793,3,http://oulunliikenne.fi/2400,0,,Europe/Helsinki
120774,2083,Heikinkatu P,,65.013611,25.484105,2,http://oulunliikenne.fi/2083,0,,Europe/Helsinki
171262,1249,Sorosenperän th P,,65.288311,25.372876,4,http://oulunliikenne.fi/1249,0,,Europe/Helsinki
190178,2402,Ervastintörmä P,,64.975118,25.288498,3,http://oulunliikenne.fi/2402,0,,Europe/Helsinki
120578,1811,Ruotutie P,,65.05151600000002,25.602229,2,http://oulunliikenne.fi/1811,0,,Europe/Helsinki
101500,1264,Luukela E,,65.23283600000002,25.360739,3,http://oulunliikenne.fi/1264,0,,Europe/Helsinki
101623,1446,Kuivasjärven th P,,65.14886300000002,25.635846,3,http://oulunliikenne.fi/1446,0,,Europe/Helsinki
184164,3225,Myllytulli E,,65.016804,25.489376,1,http://oulunliikenne.fi/3225,0,,Europe/Helsinki
164365,3113,Silmutie E,,65.075572,25.460999,2,http://oulunliikenne.fi/3113,0,,Europe/Helsinki
98723,2614,Pikkuharjuntie P,,64.930707,25.737128,3,http://oulunliikenne.fi/2614,0,,Europe/Helsinki
120497,1723,Karjakenttä E,,65.068371,25.489431,2,http://oulunliikenne.fi/1723,0,,Europe/Helsinki
148500,1180,Rantakestilä E,,65.32064,25.32343,4,http://oulunliikenne.fi/1180,0,,Europe/Helsinki
120392,1612,Rantapolku P,,65.091507,25.698608,3,http://oulunliikenne.fi/1612,0,,Europe/Helsinki
101123,8338,Saarenkartano P,,65.0166,24.737,5,http://oulunliikenne.fi/8338,0,,Europe/Helsinki
120286,1491,Kotikumpu P,,65.13176300000002,25.766073,3,http://oulunliikenne.fi/1491,0,,Europe/Helsinki
120597,1830,Mustansuontie P,,65.048069,25.44041,2,http://oulunliikenne.fi/1830,0,,Europe/Helsinki
150145,2852,Oikotie th E,,64.854046,25.48753,4,http://oulunliikenne.fi/2852,0,,Europe/Helsinki
190171,2588,Hailuodon th E,,64.938554,25.428336,3,http://oulunliikenne.fi/2588,0,,Europe/Helsinki
98733,2723,Pikkaraisenkylä P,,64.906609,25.787667,3,http://oulunliikenne.fi/2723,0,,Europe/Helsinki
326515,2668,Komeetantie E,,64.919974,25.509675,3,http://oulunliikenne.fi/2668,0,,Europe/Helsinki
120789,2101,Toripakka P,,65.012624,25.468764,2,http://oulunliikenne.fi/2101,0,,Europe/Helsinki
120914,2267,Tavitie P,,64.992932,25.490258,2,http://oulunliikenne.fi/2267,0,,Europe/Helsinki
184453,2307,Äimärautio E,,64.985259,25.475921,2,http://oulunliikenne.fi/2307,0,,Europe/Helsinki
120573,1803,Oulunseläntie E,,65.056063,25.427662,2,http://oulunliikenne.fi/1803,0,,Europe/Helsinki
184259,1231,Leskelä P,,65.302556,25.562389,4,http://oulunliikenne.fi/1231,0,,Europe/Helsinki
101655,1539,Paso P,,65.120422,25.802249,3,http://oulunliikenne.fi/1539,0,,Europe/Helsinki
148475,1530,Kellon liikekeskus E,,65.12856600000002,25.355453,3,http://oulunliikenne.fi/1530,0,,Europe/Helsinki
148094,2261,Markkuu P,,64.990712,25.604262,2,http://oulunliikenne.fi/2261,0,,Europe/Helsinki
120731,2036,Kurkelankuja E,,65.020208,25.515685,2,http://oulunliikenne.fi/2036,0,,Europe/Helsinki
150141,2911,Selkämaa th E,,64.83232,25.46159,4,http://oulunliikenne.fi/2911,0,,Europe/Helsinki
97708,1253,Räinänperän th P,,65.275088,25.365443,4,http://oulunliikenne.fi/1253,0,,Europe/Helsinki
150092,3033,Matinolli P,,64.794628,25.684367,4,http://oulunliikenne.fi/3033,0,,Europe/Helsinki
171362,2761,Leppäojantie P,,64.897808,25.52148,3,http://oulunliikenne.fi/2761,0,,Europe/Helsinki
148172,2756,Roininen P,,64.893788,25.853136,4,http://oulunliikenne.fi/2756,0,,Europe/Helsinki
310594,1991,Lipporanta P,,65.030152,25.45487,2,http://oulunliikenne.fi/1991,0,,Europe/Helsinki
150166,2529,Maksakuja P,,64.954561,25.38572,3,http://oulunliikenne.fi/2529,0,,Europe/Helsinki
120736,2041,Toivoniemi E,,65.021996,25.467969,2,http://oulunliikenne.fi/2041,0,,Europe/Helsinki
120826,2155,Heinätorin puisto P,,65.007792,25.461636,2,http://oulunliikenne.fi/2155,0,,Europe/Helsinki
150392,1234,Kaisto P (EP),,65.297348,25.627293,4,http://oulunliikenne.fi/1234,0,,Europe/Helsinki
120560,1788,Rakentajantie P,,65.05698,25.458863,2,http://oulunliikenne.fi/1788,0,,Europe/Helsinki
190200,1512,Kauppareitti P,,65.126797,25.778919,3,http://oulunliikenne.fi/1512,0,,Europe/Helsinki
148477,1537,Häli E,,65.12637700000002,25.348899,3,http://oulunliikenne.fi/1537,0,,Europe/Helsinki
148209,3083,Ritolantie P,,64.834389,25.941861,4,http://oulunliikenne.fi/3083,0,,Europe/Helsinki
97669,3064,Ala-Temmes ns P,,64.769584,25.548091,4,http://oulunliikenne.fi/3064,0,,Europe/Helsinki
303647,3140,Linja-autoasema T,,65.00965,25.4845,2,http://oulunliikenne.fi/3140,0,,Europe/Helsinki
150358,1270,Kalliomäki P,,65.224567,25.344636,3,http://oulunliikenne.fi/1270,0,,Europe/Helsinki
98707,2388,Heikkilänkankaan th E,,64.970911,25.613596,2,http://oulunliikenne.fi/2388,0,,Europe/Helsinki
188407,4037,Liminka th L,,64.80027200000002,25.42323,4,http://oulunliikenne.fi/4037,0,,Europe/Helsinki
121080,2473,Tiaispuisto E,,64.961519,25.544005,2,http://oulunliikenne.fi/2473,0,,Europe/Helsinki
148433,1354,Harjunkangas E,,65.18665,25.473856,4,http://oulunliikenne.fi/1354,0,,Europe/Helsinki
324715,2113,Oulujoen kirkko E,,65.007415,25.563911,2,http://oulunliikenne.fi/2113,0,,Europe/Helsinki
150069,2851,Kälkäinen E,,64.852135,25.629098,3,http://oulunliikenne.fi/2851,0,,Europe/Helsinki
120730,2035,Metsotie E,,65.02084000000002,25.535193,2,http://oulunliikenne.fi/2035,0,,Europe/Helsinki
120921,2280,Viriänpuisto E,,64.989262,25.562905,2,http://oulunliikenne.fi/2280,0,,Europe/Helsinki
101537,1581,Holstinmutka P,,65.109223,25.388435,3,http://oulunliikenne.fi/1581,0,,Europe/Helsinki
120596,1829,Mustansuontie E,,65.047986,25.440202,2,http://oulunliikenne.fi/1829,0,,Europe/Helsinki
148059,2886,Jurvakainen P,,64.83237,26.059203,4,http://oulunliikenne.fi/2886,0,,Europe/Helsinki
98748,2811,Rova arola P,,64.866512,25.877061,4,http://oulunliikenne.fi/2811,0,,Europe/Helsinki
152767,1853,Pääkankaantie P,,65.042496,25.667532,3,http://oulunliikenne.fi/1853,0,,Europe/Helsinki
148117,2505,Turkantie P,,64.95447,25.716166,3,http://oulunliikenne.fi/2505,0,,Europe/Helsinki
148088,2102,Oulujoentie P,,65.01032,25.572632,2,http://oulunliikenne.fi/2102,0,,Europe/Helsinki
120931,2292,Jalohaukka E,,64.988012,25.517641,2,http://oulunliikenne.fi/2292,0,,Europe/Helsinki
101508,1337,Keiska E,,65.192212,25.364725,3,http://oulunliikenne.fi/1337,0,,Europe/Helsinki
148081,1984,Sivutie P,,65.02570900000002,25.540465,2,http://oulunliikenne.fi/1984,0,,Europe/Helsinki
101702,1136,Tiri E,,65.32506600000002,25.506343,4,http://oulunliikenne.fi/1136,0,,Europe/Helsinki
120998,2376,Sutela E,,64.973867,25.503576,2,http://oulunliikenne.fi/2376,0,,Europe/Helsinki
187933,2975,Virkkula E,,64.816444,25.327469,4,http://oulunliikenne.fi/2975,0,,Europe/Helsinki
307138,2565,Pitkämäki P,,64.94355055893558,25.38474039882766,3,http://oulunliikenne.fi/2565,0,,Europe/Helsinki
171798,2426,Oulunlahden koulu E,,64.96826900000002,25.494677,2,http://oulunliikenne.fi/2426,0,,Europe/Helsinki
190076,2938,Temmesjoki P,,64.82483000000002,25.453065,4,http://oulunliikenne.fi/2938,0,,Europe/Helsinki
98795,8212,Syväyksentie E,,64.79130000000002,26.1222,5,http://oulunliikenne.fi/8212,0,,Europe/Helsinki
98715,2533,Kievarintie P,,64.95007,25.674668,3,http://oulunliikenne.fi/2533,0,,Europe/Helsinki
184248,1202,Patosillan th P,,65.31346000000002,25.532167,4,http://oulunliikenne.fi/1202,0,,Europe/Helsinki
184242,1144,Niskala P,,65.320322,25.690902,5,http://oulunliikenne.fi/1144,0,,Europe/Helsinki
147994,2876,Rajakorven th P,,64.845286,25.54926,4,http://oulunliikenne.fi/2876,0,,Europe/Helsinki
308264,2748,Monitoimitalo E,,64.903303,25.547112,3,http://oulunliikenne.fi/2748,0,,Europe/Helsinki
190194,2477,Oulunlahti P,,64.961023,25.502918,2,http://oulunliikenne.fi/2477,0,,Europe/Helsinki
150147,2828,Tupos P,,64.86421900000002,25.491915,4,http://oulunliikenne.fi/2828,0,,Europe/Helsinki
120576,1809,Välskärintie E,,65.050091,25.607125,2,http://oulunliikenne.fi/1809,0,,Europe/Helsinki
148062,2859,Leppiniemi E,,64.84355,26.042752,4,http://oulunliikenne.fi/2859,0,,Europe/Helsinki
121324,2872,Pikkarala th P2,,64.844741,25.651439,4,http://oulunliikenne.fi/2872,0,,Europe/Helsinki
150402,1238,Turtinen P,,65.295895,25.69503,5,http://oulunliikenne.fi/1238,0,,Europe/Helsinki
153128,3005,Liminka yläaste P,,64.81054,25.414051,4,http://oulunliikenne.fi/3005,0,,Europe/Helsinki
120454,1680,Kuuselantie P,,65.07746400000002,25.397628,2,http://oulunliikenne.fi/1680,0,,Europe/Helsinki
120379,1599,Holopaisenkuja E,,65.097017,25.419115,2,http://oulunliikenne.fi/1599,0,,Europe/Helsinki
101084,2371,Ristihäkki E,,64.978607,25.277512,3,http://oulunliikenne.fi/2371,0,,Europe/Helsinki
184160,3229,Viestikatu E,,65.017178,25.503337,1,http://oulunliikenne.fi/3229,0,,Europe/Helsinki
310599,1966,Hietasaarentie E,,65.030624,25.4481,2,http://oulunliikenne.fi/1966,0,,Europe/Helsinki
186023,3305,Pomolantie E,,65.21933706419544,25.30061130620137,3,http://oulunliikenne.fi/3305,0,,Europe/Helsinki
120592,1825,Solmutie P,,65.048575,25.452042,2,http://oulunliikenne.fi/1825,0,,Europe/Helsinki
120520,1746,Kaijonlahdentie E,,65.061646,25.495996,2,http://oulunliikenne.fi/1746,0,,Europe/Helsinki
190181,3340,Kunnankuja E,,64.763111,25.648305,4,http://oulunliikenne.fi/3340,0,,Europe/Helsinki
185803,3302,Länsituulen koulu,,65.17789500000002,25.337112,3,http://oulunliikenne.fi/3302,0,,Europe/Helsinki
181287,3270,Kuovintie P,,64.94224,25.372985,3,http://oulunliikenne.fi/3270,0,,Europe/Helsinki
120992,2368,Tahkokangas P,,64.975991,25.517756,2,http://oulunliikenne.fi/2368,0,,Europe/Helsinki
184149,3240,Uimahalli E,,65.008189,25.497117,1,http://oulunliikenne.fi/3240,0,,Europe/Helsinki
120886,2229,Knuutilanranta P,,64.995869,25.558776,2,http://oulunliikenne.fi/2229,0,,Europe/Helsinki
150385,1229,Jakkuranta P,,65.300943,25.606564,4,http://oulunliikenne.fi/1229,0,,Europe/Helsinki
101100,8314,Niementien th E,,65.0589,24.8588,5,http://oulunliikenne.fi/8314,0,,Europe/Helsinki
101291,1892,Tielaitos P,,65.031921,26.101907,4,http://oulunliikenne.fi/1892,0,,Europe/Helsinki
98796,8213,Hyrkäs P,,64.7892,26.1347,5,http://oulunliikenne.fi/8213,0,,Europe/Helsinki
150077,2882,Murto E,,64.839896,25.664306,4,http://oulunliikenne.fi/2882,0,,Europe/Helsinki
171808,2320,Äimärautio P,,64.98544800000002,25.475974,2,http://oulunliikenne.fi/2320,0,,Europe/Helsinki
120424,1646,Kaijantie P,,65.088538,25.410577,2,http://oulunliikenne.fi/1646,0,,Europe/Helsinki
120565,1793,Johdinkuja P,,65.054834,25.596319,2,http://oulunliikenne.fi/1793,0,,Europe/Helsinki
120485,1711,Kuivasoja E,,65.072059,25.408116,2,http://oulunliikenne.fi/1711,0,,Europe/Helsinki
101132,8347,Sauvola P,,65.01220000000002,24.676,5,http://oulunliikenne.fi/8347,0,,Europe/Helsinki
101034,3009,Niskanen E,,64.81139,25.377366,4,http://oulunliikenne.fi/3009,0,,Europe/Helsinki
98720,2569,Määtäntie E,,64.940352,25.697762,3,http://oulunliikenne.fi/2569,0,,Europe/Helsinki
184240,1171,Iin Aseman koulu P,,65.319957,25.448221,4,http://oulunliikenne.fi/1171,0,,Europe/Helsinki
310626,10004,Kontinkangas,,65.01084218299604,25.51309040287223,1,http://oulunliikenne.fi/10004,0,,Europe/Helsinki
120489,1715,Vesipääskyntie P,,65.06918,25.517402,2,http://oulunliikenne.fi/1715,0,,Europe/Helsinki
150387,1228,Kuopionharju P,,65.301919,25.617985,4,http://oulunliikenne.fi/1228,0,,Europe/Helsinki
190228,2448,Santaniemi E,,64.967877,25.25749,3,http://oulunliikenne.fi/2448,0,,Europe/Helsinki
148002,2948,Nikula th P,,64.819496,25.601001,4,http://oulunliikenne.fi/2948,0,,Europe/Helsinki
120936,2297,Kihokkitie P,,64.98906700000002,25.493147,2,http://oulunliikenne.fi/2297,0,,Europe/Helsinki
121273,2725,Kokkokaarto P,,64.90976000000002,25.548144,3,http://oulunliikenne.fi/2725,0,,Europe/Helsinki
164187,3122,Mesaanitie P,,65.031198,25.433096,2,http://oulunliikenne.fi/3122,0,,Europe/Helsinki
120964,2331,Snellmankoti E,,64.98312,25.492295,2,http://oulunliikenne.fi/2331,0,,Europe/Helsinki
120079,1271,Kalastajantie E,,65.22508000000002,25.310883,3,http://oulunliikenne.fi/1271,0,,Europe/Helsinki
188528,8087,Suomela P,,64.776036,25.747448,4,http://oulunliikenne.fi/8087,0,,Europe/Helsinki
120807,2122,Oulunsuun koulu E,,65.00702200000002,25.52859,2,http://oulunliikenne.fi/2122,0,,Europe/Helsinki
98746,2806,Rova P,,64.869828,25.867154,4,http://oulunliikenne.fi/2806,0,,Europe/Helsinki
186174,3318,Rita-aukio P,,65.08046667000002,25.45353333,2,http://oulunliikenne.fi/3318,0,,Europe/Helsinki
101706,1212,Pikkulaurila E,,65.311697,25.567146,4,http://oulunliikenne.fi/1212,0,,Europe/Helsinki
171812,2396,Keskipiiri P,,64.973648,25.326678,3,http://oulunliikenne.fi/2396,0,,Europe/Helsinki
98783,8200,Muhosjoki E,,64.80540000000002,26.0151,5,http://oulunliikenne.fi/8200,0,,Europe/Helsinki
307152,3294,Harjapäänkatu E,,65.00378338836121,25.47013330500684,1,http://oulunliikenne.fi/3294,0,,Europe/Helsinki
120893,2236,Hanhitie P,,64.995826,25.495225,2,http://oulunliikenne.fi/2236,0,,Europe/Helsinki
315730,2114,Oulujoen kirkko P,,65.007336,25.5639,2,http://oulunliikenne.fi/2114,0,,Europe/Helsinki
153150,3026,Värminkosken th P,,64.807535,25.399892,4,http://oulunliikenne.fi/3026,0,,Europe/Helsinki
120432,1656,Sahantie E,,65.085346,25.40562,2,http://oulunliikenne.fi/1656,0,,Europe/Helsinki
120383,1604,Blomintie P,,65.092351,25.70597,3,http://oulunliikenne.fi/1604,0,,Europe/Helsinki
120404,1626,Havutie E,,65.087268,25.710492,3,http://oulunliikenne.fi/1626,0,,Europe/Helsinki
147971,2642,Sohjanantie E,,64.927965,25.509267,3,http://oulunliikenne.fi/2642,0,,Europe/Helsinki
101531,1536,Kalimensilta P,,65.125948,25.361324,3,http://oulunliikenne.fi/1536,0,,Europe/Helsinki
98808,8227,Koivisto E,,64.7804,26.3605,5,http://oulunliikenne.fi/8227,0,,Europe/Helsinki
101054,2628,Lentäjäntie P,,64.9317727142364,25.38554006958169,3,http://oulunliikenne.fi/2628,0,,Europe/Helsinki
101650,1504,Kiimingin lukio E,,65.12935400000002,25.772022,3,http://oulunliikenne.fi/1504,0,,Europe/Helsinki
307174,1611,Laivakankaan koulu E,,65.08340800000002,25.706029,3,http://oulunliikenne.fi/1611,0,,Europe/Helsinki
120398,1619,Kukkulatie P,,65.08915500000002,25.693298,3,http://oulunliikenne.fi/1619,0,,Europe/Helsinki
120706,2004,Laanilan koulu P,,65.02437,25.520208,2,http://oulunliikenne.fi/2004,0,,Europe/Helsinki
98728,2627,Raita-ahontie E,,64.920309,25.754719,3,http://oulunliikenne.fi/2627,0,,Europe/Helsinki
120678,1967,Manttaalitie P,,65.029346,25.551006,2,http://oulunliikenne.fi/1967,0,,Europe/Helsinki
148448,1339,Rippala E,,65.19220900000002,25.361949,3,http://oulunliikenne.fi/1339,0,,Europe/Helsinki
101539,1586,Oravaisenkuja P,,65.10411000000002,25.399409,2,http://oulunliikenne.fi/1586,0,,Europe/Helsinki
184172,3217,Valkealinna,,65.012835,25.474879,1,http://oulunliikenne.fi/3217,0,,Europe/Helsinki
183977,3195,Palhokuja P,,65.071365,25.447104,2,http://oulunliikenne.fi/3195,0,,Europe/Helsinki
115886,2839,Tupos Koulukeskus P,,64.859239,25.471609,4,http://oulunliikenne.fi/2839,0,,Europe/Helsinki
191215,3082,Huovila P,,64.838932,25.929945,4,http://oulunliikenne.fi/3082,0,,Europe/Helsinki
98789,8206,Laitilantie E,,64.7935,26.0676,5,http://oulunliikenne.fi/8206,0,,Europe/Helsinki
101088,2335,Hirvonen E,,64.985286,25.263943,3,http://oulunliikenne.fi/2335,0,,Europe/Helsinki
310721,4014,Vaskikangas E,,65.00558008636762,25.60341299883995,2,http://oulunliikenne.fi/4014,0,,Europe/Helsinki
171364,2752,Takatie P,,64.901214,25.522011,3,http://oulunliikenne.fi/2752,0,,Europe/Helsinki
186175,3319,Rita-aukio E,,65.08050278,25.45312222,2,http://oulunliikenne.fi/3319,0,,Europe/Helsinki
120659,1944,Huonesuonpuisto P,,65.03371300000002,25.563846,2,http://oulunliikenne.fi/1944,0,,Europe/Helsinki
120499,1725,Hanhikkitie E,,65.068607,25.429558,2,http://oulunliikenne.fi/1725,0,,Europe/Helsinki
169847,3145,Tähtipolku E,,65.042889,25.615995,2,http://oulunliikenne.fi/3145,0,,Europe/Helsinki
120387,1608,Jäälihalli E,,65.093271,25.685905,3,http://oulunliikenne.fi/1608,0,,Europe/Helsinki
120804,2119,Kastellinpolku P,,65.00788900000002,25.53376,2,http://oulunliikenne.fi/2119,0,,Europe/Helsinki
120773,2082,Peltola P,,65.013021,25.5265,2,http://oulunliikenne.fi/2082,0,,Europe/Helsinki
189727,2763,Junnintie E,,64.890795,25.856959,4,http://oulunliikenne.fi/2763,0,,Europe/Helsinki
98800,8217,Pyhänsivu th P,,64.7862,26.2454,5,http://oulunliikenne.fi/8217,0,,Europe/Helsinki
187923,2914,Jokivainio P,,64.836500385807,25.20015806168924,4,http://oulunliikenne.fi/2914,0,,Europe/Helsinki
148095,2278,Markkuu E,,64.989987,25.605359,2,http://oulunliikenne.fi/2278,0,,Europe/Helsinki
101578,2601,Kuivalanperä E,,64.936847,25.512898,3,http://oulunliikenne.fi/2601,0,,Europe/Helsinki
148168,2737,Ehtiäisentie P,,64.899816,25.844959,3,http://oulunliikenne.fi/2737,0,,Europe/Helsinki
150046,2749,Zeppelin E,,64.902815,25.540682,3,http://oulunliikenne.fi/2749,0,,Europe/Helsinki
190368,3001,Lännentie P,,64.809844,25.470893,4,http://oulunliikenne.fi/3001,0,,Europe/Helsinki
98735,2739,Hangas th P,,64.90118200000002,25.797628,3,http://oulunliikenne.fi/2739,0,,Europe/Helsinki
120663,1948,Alppila E,,65.034945,25.464785,2,http://oulunliikenne.fi/1948,0,,Europe/Helsinki
120397,1618,Kukkulatie E,,65.08891800000002,25.692821,3,http://oulunliikenne.fi/1618,0,,Europe/Helsinki
184141,3248,Medipolis,,65.006875,25.514923,1,http://oulunliikenne.fi/3248,0,,Europe/Helsinki
101680,1054,Yli-Ii P,,65.37246111597628,25.84113165327565,5,http://oulunliikenne.fi/1054,0,,Europe/Helsinki
187710,3099,Ammustie P,,65.19303600000002,25.416487,4,http://oulunliikenne.fi/3099,0,,Europe/Helsinki
120681,1973,Manttaalitie E,,65.028399,25.549529,2,http://oulunliikenne.fi/1973,0,,Europe/Helsinki
101675,1057,Halajärventie E,,65.368586,25.82432,5,http://oulunliikenne.fi/1057,0,,Europe/Helsinki
97685,3011,Arotie P,,64.807549,25.501862,4,http://oulunliikenne.fi/3011,0,,Europe/Helsinki
120594,1827,Tuhtotie P,,65.048599,25.447431,2,http://oulunliikenne.fi/1827,0,,Europe/Helsinki
184241,1172,Iin Aseman koulu E,,65.31984300000002,25.448442,4,http://oulunliikenne.fi/1172,0,,Europe/Helsinki
98488,1769,Vesalanmäki E,,65.057852,25.61694,2,http://oulunliikenne.fi/1769,0,,Europe/Helsinki
189273,3336,Ouluntullin ramppi E,,64.939849,25.53708,2,http://oulunliikenne.fi/3336,0,,Europe/Helsinki
120949,2316,Kurrenkuja E,,64.984576,25.514971,2,http://oulunliikenne.fi/2316,0,,Europe/Helsinki
189251,3262,Alasintie P,,64.998746,25.467414,1,http://oulunliikenne.fi/3262,0,,Europe/Helsinki
188520,1296,Verstasmutka E,,65.209029,25.321245,3,http://oulunliikenne.fi/1296,0,,Europe/Helsinki
189732,2877,Huovila E,,64.83885100000002,25.929822,4,http://oulunliikenne.fi/2877,0,,Europe/Helsinki
120959,2326,Patamäen koulu E,,64.983245,25.582891,2,http://oulunliikenne.fi/2326,0,,Europe/Helsinki
190288,2467,Harju E,,64.965945,25.254121,3,http://oulunliikenne.fi/2467,0,,Europe/Helsinki
101739,1085,Kaiston koulu E,,65.348385,25.757107,5,http://oulunliikenne.fi/1085,0,,Europe/Helsinki
150380,1178,Valtarin koulu P,,65.320851,25.363012,4,http://oulunliikenne.fi/1178,0,,Europe/Helsinki
101224,3070,Mäläskä E,,64.764557,25.61925,4,http://oulunliikenne.fi/3070,0,,Europe/Helsinki
187995,1192,Timpurintie P,,65.31625200000002,25.388317,4,http://oulunliikenne.fi/1192,0,,Europe/Helsinki
120754,2059,Raatti E,,65.019661,25.4677,2,http://oulunliikenne.fi/2059,0,,Europe/Helsinki
120750,2055,Värtöntie P,,65.019509,25.520329,2,http://oulunliikenne.fi/2055,0,,Europe/Helsinki
190071,2973,Marjakangas E,,64.813473,25.704523,4,http://oulunliikenne.fi/2973,0,,Europe/Helsinki
187929,2932,Sallisentie P,,64.829664,25.243066,4,http://oulunliikenne.fi/2932,0,,Europe/Helsinki
101735,1091,Suvanto E,,65.344677,25.723454,5,http://oulunliikenne.fi/1091,0,,Europe/Helsinki
120297,1502,Kiiminki P,,65.12941944000002,25.77660833,3,http://oulunliikenne.fi/1502,0,,Europe/Helsinki
310595,1992,Lipporanta E,,65.029879,25.456127,2,http://oulunliikenne.fi/1992,0,,Europe/Helsinki
150079,2894,Niitynmaa th E,,64.83379100000002,25.670824,4,http://oulunliikenne.fi/2894,0,,Europe/Helsinki
74328,1062,Kiimingin th E2,,65.366435,25.817688,5,http://oulunliikenne.fi/1062,0,,Europe/Helsinki
97672,3055,Marttila E,,64.776168,25.548052,4,http://oulunliikenne.fi/3055,0,,Europe/Helsinki
101301,2849,Laukka silta E2,,64.850325,25.913934,4,http://oulunliikenne.fi/2849,0,,Europe/Helsinki
98489,1768,Vesalanmäki P,,65.058151,25.618284,2,http://oulunliikenne.fi/1768,0,,Europe/Helsinki
308739,3351,Ylikylän koulu E,,64.896442,25.54415,3,http://oulunliikenne.fi/3351,0,,Europe/Helsinki
98729,2682,Pikkarala P,,64.913992,25.763265,3,http://oulunliikenne.fi/2682,0,,Europe/Helsinki
148000,2936,Jokisilta P,,64.824371,25.590911,4,http://oulunliikenne.fi/2936,0,,Europe/Helsinki
97674,3051,Ala-Temmeksen koulu E,,64.780425,25.547613,4,http://oulunliikenne.fi/3051,0,,Europe/Helsinki
120722,2025,Yrjänäntie E,,65.02322100000002,25.530988,2,http://oulunliikenne.fi/2025,0,,Europe/Helsinki
101017,2957,Syrjäpalo P,,64.819923,25.286288,4,http://oulunliikenne.fi/2957,0,,Europe/Helsinki
101722,1119,Koivuranta E,,65.332625,25.669917,5,http://oulunliikenne.fi/1119,0,,Europe/Helsinki
101527,1511,Isohätälä P,,65.133389,25.357584,3,http://oulunliikenne.fi/1511,0,,Europe/Helsinki
148215,2898,Hartikka P,,64.828296,25.970959,4,http://oulunliikenne.fi/2898,0,,Europe/Helsinki
101121,8336,Rantatien th E,,65.0194,24.7407,5,http://oulunliikenne.fi/8336,0,,Europe/Helsinki
120598,1831,Vilkkutie P,,65.049021,25.436212,2,http://oulunliikenne.fi/1831,0,,Europe/Helsinki
121199,2623,Riisikuja E,,64.933628,25.402102,3,http://oulunliikenne.fi/2623,0,,Europe/Helsinki
101115,8330,Askeli P,,65.0286,24.7726,5,http://oulunliikenne.fi/8330,0,,Europe/Helsinki
190296,1559,Vaajatie P,,65.118753,25.336913,3,http://oulunliikenne.fi/1559,0,,Europe/Helsinki
97676,3045,Riikola E,,64.78751800000002,25.542625,4,http://oulunliikenne.fi/3045,0,,Europe/Helsinki
98807,8225,Alakylä (Utajärvi) E,,64.7788,26.3477,5,http://oulunliikenne.fi/8225,0,,Europe/Helsinki
97709,1252,Praavan th E,,65.281363,25.368354,4,http://oulunliikenne.fi/1252,0,,Europe/Helsinki
98741,2783,Viskaali th E,,64.885256,25.835642,4,http://oulunliikenne.fi/2783,0,,Europe/Helsinki
121064,2457,Punatulkunrinne P,,64.963038,25.560924,2,http://oulunliikenne.fi/2457,0,,Europe/Helsinki
181285,3272,Automaatiotie E,,64.932223,25.383321,3,http://oulunliikenne.fi/3272,0,,Europe/Helsinki
101607,1373,Saarijärvi P,,65.180488,25.535218,4,http://oulunliikenne.fi/1373,0,,Europe/Helsinki
171363,2753,Takatie E,,64.901095,25.521764,3,http://oulunliikenne.fi/2753,0,,Europe/Helsinki
189674,2637,Lapinkankaan koulu E,,64.925086,25.800616,3,http://oulunliikenne.fi/2637,0,,Europe/Helsinki
310597,1994,Tukkitie E,,65.031873,25.448884,2,http://oulunliikenne.fi/1994,0,,Europe/Helsinki
189534,2996,Nykäläntie E,,64.805504,26.001462,4,http://oulunliikenne.fi/2996,0,,Europe/Helsinki
120125,1329,Jokikylän koulu E,,65.19162900000002,25.461567,4,http://oulunliikenne.fi/1329,0,,Europe/Helsinki
120642,1918,Tupasvillatie E,,65.036388,25.572385,2,http://oulunliikenne.fi/1918,0,,Europe/Helsinki
184622,3101,Rehu E,,65.193316,25.438126,4,http://oulunliikenne.fi/3101,0,,Europe/Helsinki
101667,8000,Siltatie P,,65.132639,25.796223,3,http://oulunliikenne.fi/8000,0,,Europe/Helsinki
150394,1240,Päkkilä E,,65.29588,25.633587,4,http://oulunliikenne.fi/1240,0,,Europe/Helsinki
101581,2635,Sohjanantie P,,64.92885200000002,25.511924,3,http://oulunliikenne.fi/2635,0,,Europe/Helsinki
308744,2247,Naavakuusi E,,64.978037,25.575998,2,http://oulunliikenne.fi/2247,0,,Europe/Helsinki
171711,2774,Malurintie P,,64.887873,25.821573,4,http://oulunliikenne.fi/2774,0,,Europe/Helsinki
183974,3184,Ritaharjuntie E,,65.062649,25.446634,2,http://oulunliikenne.fi/3184,0,,Europe/Helsinki
101628,1447,Toivola E,,65.146254,25.66186,3,http://oulunliikenne.fi/1447,0,,Europe/Helsinki
120698,1995,Vellamontie E,,65.027457,25.421175,2,http://oulunliikenne.fi/1995,0,,Europe/Helsinki
153129,3006,Liminka yläaste E,,64.810681,25.412969,4,http://oulunliikenne.fi/3006,0,,Europe/Helsinki
101497,1262,Halosenniemi th P,,65.247551,25.352721,3,http://oulunliikenne.fi/1262,0,,Europe/Helsinki
120892,2235,Hanhitie E,,64.99578,25.495185,2,http://oulunliikenne.fi/2235,0,,Europe/Helsinki
101670,8005,Ruunakangas E,,65.147294,25.781965,3,http://oulunliikenne.fi/8005,0,,Europe/Helsinki
101286,1880,Vesala P,,65.034353,26.034453,4,http://oulunliikenne.fi/1880,0,,Europe/Helsinki
98716,2534,Kievarintie E,,64.9493,25.675806,3,http://oulunliikenne.fi/2534,0,,Europe/Helsinki
150331,1402,Jokelantie koulukeskus P,,65.175901,25.362145,3,http://oulunliikenne.fi/1402,0,,Europe/Helsinki
120973,2341,Jatulikiventie E,,64.980871,25.574775,2,http://oulunliikenne.fi/2341,0,,Europe/Helsinki
101093,8307,Vaski P,,65.0352,24.9745,5,http://oulunliikenne.fi/8307,0,,Europe/Helsinki
150091,3010,Tulilanton th E,,64.80604700000002,25.705721,4,http://oulunliikenne.fi/3010,0,,Europe/Helsinki
190188,1911,Ylikiimingin kirkko P,,65.029026,26.124967,4,http://oulunliikenne.fi/1911,0,,Europe/Helsinki
101022,2953,Luontokeskus th P,,64.820019,25.308797,4,http://oulunliikenne.fi/2953,0,,Europe/Helsinki
148194,2810,Rahko E,,64.865047,25.895832,4,http://oulunliikenne.fi/2810,0,,Europe/Helsinki
187702,1408,Herralankuja P,,65.177089,25.348603,3,http://oulunliikenne.fi/1408,0,,Europe/Helsinki
120676,1965,Mittamiehentie P,,65.031821,25.464603,2,http://oulunliikenne.fi/1965,0,,Europe/Helsinki
150085,2947,Patala E,,64.81814900000002,25.691369,4,http://oulunliikenne.fi/2947,0,,Europe/Helsinki
187128,1675,Siitosen th P,,65.07557,25.662434,3,http://oulunliikenne.fi/1675,0,,Europe/Helsinki
97777,2836,Ojala E,,64.855007,25.911341,4,http://oulunliikenne.fi/2836,0,,Europe/Helsinki
120504,1730,Poukamapolku E,,65.066907,25.498165,2,http://oulunliikenne.fi/1730,0,,Europe/Helsinki
190672,3345,Hakkuutie E,,64.946487,25.576836,2,http://oulunliikenne.fi/3345,0,,Europe/Helsinki
120498,1724,Hanhikkitie P,,65.06867200000002,25.429767,2,http://oulunliikenne.fi/1724,0,,Europe/Helsinki
148024,2173,Saarela P,,65.002361,25.584719,2,http://oulunliikenne.fi/2173,0,,Europe/Helsinki
120745,2050,Metsola P,,65.019373,25.534785,2,http://oulunliikenne.fi/2050,0,,Europe/Helsinki
120846,2184,Painijantie E,,64.999827,25.579574,2,http://oulunliikenne.fi/2184,0,,Europe/Helsinki
184159,3230,Viestikatu P,,65.01718,25.503549,1,http://oulunliikenne.fi/3230,0,,Europe/Helsinki
120473,1699,Hämäläntie E,,65.073438,25.402867,2,http://oulunliikenne.fi/1699,0,,Europe/Helsinki
190159,3088,Karintie P,,64.840459,25.179955,4,http://oulunliikenne.fi/3088,0,,Europe/Helsinki
121534,2008,Kalliola P,,65.025307,25.48654,2,http://oulunliikenne.fi/2008,0,,Europe/Helsinki
98771,2935,Korivaaran koulu P,,64.820681,25.95693,4,http://oulunliikenne.fi/2935,0,,Europe/Helsinki
307161,4003,Juoksupolku E,,64.99756944000002,25.61131944,2,http://oulunliikenne.fi/4003,0,,Europe/Helsinki
120558,1786,Ylioppilaskylä E,,65.05758400000002,25.472236,2,http://oulunliikenne.fi/1786,0,,Europe/Helsinki
98471,1987,Typpitie P,,65.027174,25.512518,2,http://oulunliikenne.fi/1987,0,,Europe/Helsinki
120624,1874,Järvikioski E,,65.043429,25.490991,2,http://oulunliikenne.fi/1874,0,,Europe/Helsinki
307148,3361,Satumaantie E,,64.927216,25.559971,3,http://oulunliikenne.fi/3361,0,,Europe/Helsinki
189726,2764,Junnintie P,,64.891347,25.85645,4,http://oulunliikenne.fi/2764,0,,Europe/Helsinki
148100,2366,Kärppä taimi P,,64.975516,25.635344,2,http://oulunliikenne.fi/2366,0,,Europe/Helsinki
187999,1134,Marion P,,65.326399,25.519683,4,http://oulunliikenne.fi/1134,0,,Europe/Helsinki
190223,2552,Karvolankuja E,,64.949384,25.39564,3,http://oulunliikenne.fi/2552,0,,Europe/Helsinki
325629,2207,Zatelliitin ramppi E,,64.922454,25.534007,3,http://oulunliikenne.fi/2207,0,,Europe/Helsinki
190172,2620,Karhuojan th P,,64.933741,25.399304,3,http://oulunliikenne.fi/2620,0,,Europe/Helsinki
307160,4002,Juoksupolku P,,64.99777796835087,25.61287319154162,2,http://oulunliikenne.fi/4002,0,,Europe/Helsinki
120442,1668,Jalopuuntie E,,65.079199,25.410581,2,http://oulunliikenne.fi/1668,0,,Europe/Helsinki
120999,2377,Sutela P,,64.974281,25.501901,2,http://oulunliikenne.fi/2377,0,,Europe/Helsinki
148140,2604,Vaalantie E,,64.931082,25.786688,3,http://oulunliikenne.fi/2604,0,,Europe/Helsinki
101058,2718,Tiilitie E,,64.912149,25.499515,3,http://oulunliikenne.fi/2718,0,,Europe/Helsinki
98786,8203,Honkala P,,64.79770000000002,26.0496,5,http://oulunliikenne.fi/8203,0,,Europe/Helsinki
101053,2621,Karhuojan th E,,64.933826,25.398833,3,http://oulunliikenne.fi/2621,0,,Europe/Helsinki
148079,1974,Hintan päiväkoti P,,65.02709,25.534935,2,http://oulunliikenne.fi/1974,0,,Europe/Helsinki
101746,1065,Pohjukkaoja E,,65.36469700000002,25.798615,5,http://oulunliikenne.fi/1065,0,,Europe/Helsinki
189519,1674,Siitosen th E,,65.074472,25.661001,3,http://oulunliikenne.fi/1674,0,,Europe/Helsinki
101221,3078,Vaaranmaa P,,64.762432,25.567284,4,http://oulunliikenne.fi/3078,0,,Europe/Helsinki
148013,3050,Härmä E,,64.779707,25.641376,4,http://oulunliikenne.fi/3050,0,,Europe/Helsinki
309975,3390,Ritaharjun koulu P,,65.08032,25.45589,2,http://oulunliikenne.fi/3390,0,,Europe/Helsinki
101052,2610,Oulunsalon museo E,,64.936322,25.415818,3,http://oulunliikenne.fi/2610,0,,Europe/Helsinki
120356,1574,Alavainio P,,65.11182700000002,25.348269,3,http://oulunliikenne.fi/1574,0,,Europe/Helsinki
120783,2095,Kontinkangas E,,65.011652,25.514167,2,http://oulunliikenne.fi/2095,0,,Europe/Helsinki
186024,3306,Musiikkikeskus E,,65.003706,25.478708,2,http://oulunliikenne.fi/3306,0,,Europe/Helsinki
171263,1250,Sorosenperän th E,,65.288387,25.372443,4,http://oulunliikenne.fi/1250,0,,Europe/Helsinki
98768,2915,Korilantie P,,64.82555000000002,25.931445,4,http://oulunliikenne.fi/2915,0,,Europe/Helsinki
101263,1882,Saviharju E,,65.038978,25.715543,3,http://oulunliikenne.fi/1882,0,,Europe/Helsinki
120525,1751,Tapiontie E,,65.062821,25.478269,2,http://oulunliikenne.fi/1751,0,,Europe/Helsinki
148442,1316,Aseman koulu E,,65.19867600000002,25.392609,3,http://oulunliikenne.fi/1316,0,,Europe/Helsinki
120719,2022,Parkkisenkangas P,,65.022832,25.54164,2,http://oulunliikenne.fi/2022,0,,Europe/Helsinki
150137,2965,Toivontie P,,64.817844,25.437903,4,http://oulunliikenne.fi/2965,0,,Europe/Helsinki
101712,1216,Mettovaaran puutarha E,,65.308981,25.608477,4,http://oulunliikenne.fi/1216,0,,Europe/Helsinki
148057,2889,Jurvakainen E,,64.831997,26.058394,4,http://oulunliikenne.fi/2889,0,,Europe/Helsinki
101582,2643,Sohjanantie E2,,64.92754600000002,25.511383,3,http://oulunliikenne.fi/2643,0,,Europe/Helsinki
121107,2503,Siipikuja E,,64.958471,25.530453,2,http://oulunliikenne.fi/2503,0,,Europe/Helsinki
191393,1404,Ukonkaivoksentie E,,65.176194,25.35694,3,http://oulunliikenne.fi/1404,0,,Europe/Helsinki
183966,3179,Savotta-aukio E,,64.94487700000002,25.572648,2,http://oulunliikenne.fi/3179,0,,Europe/Helsinki
98713,2507,Madekosken th P,,64.954334,25.662901,3,http://oulunliikenne.fi/2507,0,,Europe/Helsinki
148464,1293,Martinniemen koulu P,,65.210822,25.315511,3,http://oulunliikenne.fi/1293,0,,Europe/Helsinki
121066,2460,Kuukkelipolku E,,64.963882,25.54898,2,http://oulunliikenne.fi/2460,0,,Europe/Helsinki
101546,1670,Keskuskatu P,,65.07884,25.408816,2,http://oulunliikenne.fi/1670,0,,Europe/Helsinki
101260,1851,Putaala E,,65.042723,25.688161,3,http://oulunliikenne.fi/1851,0,,Europe/Helsinki
120709,2007,Hoikantie E,,65.024857,25.497028,2,http://oulunliikenne.fi/2007,0,,Europe/Helsinki
120853,2191,Radiomastontie E,,65.001591,25.530077,2,http://oulunliikenne.fi/2191,0,,Europe/Helsinki
230859,3410,Rytikuja P2,,65.317375,25.362592,4,http://oulunliikenne.fi/3410,0,,Europe/Helsinki
121323,2871,Simontaival P,,64.845244,25.663492,4,http://oulunliikenne.fi/2871,0,,Europe/Helsinki
184151,3238,Jäähalli E,,65.009058,25.492571,1,http://oulunliikenne.fi/3238,0,,Europe/Helsinki
150399,1246,Ojalantie P,,65.292057,25.68478,5,http://oulunliikenne.fi/1246,0,,Europe/Helsinki
120766,2074,Erkkola P,,65.015525,25.52842,2,http://oulunliikenne.fi/2074,0,,Europe/Helsinki
169656,3092,Muinaisranta E,,64.836476,25.678109,4,http://oulunliikenne.fi/3092,0,,Europe/Helsinki
120923,2282,Vesaisentie P,,64.990548,25.490562,2,http://oulunliikenne.fi/2282,0,,Europe/Helsinki
97778,2835,Ojala P,,64.855256,25.91112,4,http://oulunliikenne.fi/2835,0,,Europe/Helsinki
148019,3066,Tyrnävän yläaste E,,64.765963,25.650159,4,http://oulunliikenne.fi/3066,0,,Europe/Helsinki
101666,8001,Siltatie E,,65.132432,25.79616,3,http://oulunliikenne.fi/8001,0,,Europe/Helsinki
120638,1906,Tervahovintie P,,65.040038,25.460181,2,http://oulunliikenne.fi/1906,0,,Europe/Helsinki
150067,2843,Heikkinen E,,64.856068,25.617869,3,http://oulunliikenne.fi/2843,0,,Europe/Helsinki
310705,4025,Mukkelintie P,,65.004642,25.577055,2,http://oulunliikenne.fi/4025,0,,Europe/Helsinki
120208,1413,Kauppakuja P,,65.175433,25.350563,3,http://oulunliikenne.fi/1413,0,,Europe/Helsinki
148446,1326,Tuohilaakso E,,65.194062,25.371488,3,http://oulunliikenne.fi/1326,0,,Europe/Helsinki
188507,1859,Korvensuora P,,65.044415,25.575035,2,http://oulunliikenne.fi/1859,0,,Europe/Helsinki
120386,1607,Jäälihalli P,,65.09262,25.689448,3,http://oulunliikenne.fi/1607,0,,Europe/Helsinki
120665,1954,Tokkatie P,,65.031194,25.554748,2,http://oulunliikenne.fi/1954,0,,Europe/Helsinki
310857,3402,Kettumetsä P,,65.084401,25.464691,2,http://oulunliikenne.fi/3402,0,,Europe/Helsinki
120708,2005,Laamannintie P,,65.023862,25.511472,2,http://oulunliikenne.fi/2005,0,,Europe/Helsinki
150320,1391,Härkätie P,,65.178046,25.344253,3,http://oulunliikenne.fi/1391,0,,Europe/Helsinki
120724,2026,Nokkalantie P,,65.023597,25.505629,2,http://oulunliikenne.fi/2026,0,,Europe/Helsinki
189728,2781,Sairaalantie P,,64.883803,25.866966,4,http://oulunliikenne.fi/2781,0,,Europe/Helsinki
171795,2514,Lentokentän th P,,64.956307,25.505023,2,http://oulunliikenne.fi/2514,0,,Europe/Helsinki
120688,1982,Karttatie E,,65.025617,25.545754,2,http://oulunliikenne.fi/1982,0,,Europe/Helsinki
120664,1949,Satamatie E,,65.033996,25.446752,2,http://oulunliikenne.fi/1949,0,,Europe/Helsinki
120868,2206,Kotkantien oppilaitokset P,,65.00013800000002,25.512835,2,http://oulunliikenne.fi/2206,0,,Europe/Helsinki
147975,2666,Savikorpi P,,64.92321200000002,25.496994,3,http://oulunliikenne.fi/2666,0,,Europe/Helsinki
120090,1289,Repolantie E,,65.213011,25.307506,3,http://oulunliikenne.fi/1289,0,,Europe/Helsinki
184245,1191,Raasakka E,,65.315428,25.514185,4,http://oulunliikenne.fi/1191,0,,Europe/Helsinki
101558,3223,Tulliväylä E,,65.015021,25.488671,1,http://oulunliikenne.fi/3223,0,,Europe/Helsinki
148498,1198,Vaihtometsäntie E,,65.317387,25.333486,4,http://oulunliikenne.fi/1198,0,,Europe/Helsinki
101226,3074,Keskikyläntie P,,64.762908,25.633919,4,http://oulunliikenne.fi/3074,0,,Europe/Helsinki
148083,2020,Haapalehto P,,65.022339,25.55007,2,http://oulunliikenne.fi/2020,0,,Europe/Helsinki
120854,2192,Svaanin th P,,65.001577,25.528657,2,http://oulunliikenne.fi/2192,0,,Europe/Helsinki
101030,2988,Leisu E,,64.814396,25.351264,4,http://oulunliikenne.fi/2988,0,,Europe/Helsinki
169634,2516,Poikuekuja E,,64.953681,25.535986,2,http://oulunliikenne.fi/2516,0,,Europe/Helsinki
187707,1403,Ukonkaivoksentie P,,65.176311,25.357851,3,http://oulunliikenne.fi/1403,0,,Europe/Helsinki
120718,2019,Kaplastie E,,65.022238,25.559009,2,http://oulunliikenne.fi/2019,0,,Europe/Helsinki
184236,1121,Naurua P,,65.331184,25.728488,5,http://oulunliikenne.fi/1121,0,,Europe/Helsinki
120633,1901,Leväsuontie E,,65.039055,25.577381,2,http://oulunliikenne.fi/1901,0,,Europe/Helsinki
120538,1764,Elektroniikkatie 4P,,65.060323,25.439545,2,http://oulunliikenne.fi/1764,0,,Europe/Helsinki
120902,2248,Hiirihaukka P,,64.993678,25.520867,2,http://oulunliikenne.fi/2248,0,,Europe/Helsinki
120350,1567,Uhanperä P,,65.115236,25.344182,3,http://oulunliikenne.fi/1567,0,,Europe/Helsinki
121163,2577,Pitkämäki E,,64.943652,25.382378,3,http://oulunliikenne.fi/2577,0,,Europe/Helsinki
181286,3269,Automaatiotie P,,64.932217,25.383617,3,http://oulunliikenne.fi/3269,0,,Europe/Helsinki
121001,2379,Eteläranta P,,64.975127,25.496834,2,http://oulunliikenne.fi/2379,0,,Europe/Helsinki
120657,1938,Satamatie P,,65.03519,25.446003,2,http://oulunliikenne.fi/1938,0,,Europe/Helsinki
184173,3216,Galleria,,65.011747,25.474623,1,http://oulunliikenne.fi/3216,0,,Europe/Helsinki
97629,2980,Ojakylä E,,64.811381,25.709795,4,http://oulunliikenne.fi/2980,0,,Europe/Helsinki
120757,2062,Kuparilammintie E,,65.017125,25.543373,2,http://oulunliikenne.fi/2062,0,,Europe/Helsinki
101519,1440,Annalankangas P,,65.161517,25.347994,3,http://oulunliikenne.fi/1440,0,,Europe/Helsinki
101268,1834,Kiiminki th E,,65.041628,25.870612,3,http://oulunliikenne.fi/1834,0,,Europe/Helsinki
98714,2510,Madekosken th E,,64.954138,25.663016,3,http://oulunliikenne.fi/2510,0,,Europe/Helsinki
148444,1318,Saarikankaantie E,,65.196587,25.383487,3,http://oulunliikenne.fi/1318,0,,Europe/Helsinki
148455,1315,Siipola P,,65.200802,25.339819,3,http://oulunliikenne.fi/1315,0,,Europe/Helsinki
153130,3008,Kirkko th E,,64.81052200000002,25.407378,4,http://oulunliikenne.fi/3008,0,,Europe/Helsinki
101290,1896,Linnakekuja P,,65.031797,26.058338,4,http://oulunliikenne.fi/1896,0,,Europe/Helsinki
120742,2047,Koivumaantie E2,,65.01812700000002,25.54858,2,http://oulunliikenne.fi/2047,0,,Europe/Helsinki
101297,1926,Makasiinikangas E,,65.02853500000002,26.140857,4,http://oulunliikenne.fi/1926,0,,Europe/Helsinki
101293,1912,Ukonkangas P,,65.030124,26.11345,4,http://oulunliikenne.fi/1912,0,,Europe/Helsinki
101082,2399,Ervastinkylä E,,64.973781,25.300276,3,http://oulunliikenne.fi/2399,0,,Europe/Helsinki
98697,2166,Teuvo Pakkala E,,65.005534,25.490946,2,http://oulunliikenne.fi/2166,0,,Europe/Helsinki
120942,2305,Mäntyrinne E,,64.987152,25.56465,2,http://oulunliikenne.fi/2305,0,,Europe/Helsinki
183953,3172,Tuomipellontie P,,64.950484,25.540224,2,http://oulunliikenne.fi/3172,0,,Europe/Helsinki
120851,2189,Lämsänjärventie E,,65.000852,25.552698,2,http://oulunliikenne.fi/2189,0,,Europe/Helsinki
101041,3151,Pappilanpelto P,,64.80444300000002,25.419384,4,http://oulunliikenne.fi/3151,0,,Europe/Helsinki
101613,1396,Kuivala P,,65.175043,25.573443,4,http://oulunliikenne.fi/1396,0,,Europe/Helsinki
98702,2344,Maikkulantien th E,,64.98028100000002,25.562879,2,http://oulunliikenne.fi/2344,0,,Europe/Helsinki
120507,1733,Raitotie P,,65.06374,25.509862,2,http://oulunliikenne.fi/1733,0,,Europe/Helsinki
191117,1193,Timpurintie E,,65.31617,25.388236,4,http://oulunliikenne.fi/1193,0,,Europe/Helsinki
184243,1143,Niskala E,,65.32018600000002,25.690694,5,http://oulunliikenne.fi/1143,0,,Europe/Helsinki
120948,2315,Metsänkuninkaantie P,,64.985034,25.512276,2,http://oulunliikenne.fi/2315,0,,Europe/Helsinki
121008,2390,Kaskiahonkuja P,,64.972377,25.59575,2,http://oulunliikenne.fi/2390,0,,Europe/Helsinki
101261,1884,Jääkärintie P,,65.039448,25.700424,3,http://oulunliikenne.fi/1884,0,,Europe/Helsinki
183973,3183,Ritaharjuntie P,,65.062474,25.447027,2,http://oulunliikenne.fi/3183,0,,Europe/Helsinki
120564,1792,Johdinkuja E,,65.054118,25.597418,2,http://oulunliikenne.fi/1792,0,,Europe/Helsinki
98725,2624,Vasankangas th P,,64.92568300000002,25.749688,3,http://oulunliikenne.fi/2624,0,,Europe/Helsinki
98790,8207,Suokylä th P,,64.7928,26.0749,5,http://oulunliikenne.fi/8207,0,,Europe/Helsinki
171810,1801,Keulapuisto P,,65.055879,25.443523,2,http://oulunliikenne.fi/1801,0,,Europe/Helsinki
101506,1305,Kuivalanperäntie E,,65.203153,25.362682,3,http://oulunliikenne.fi/1305,0,,Europe/Helsinki
120508,1734,Kerttulanpuisto E,,65.064968,25.506095,2,http://oulunliikenne.fi/1734,0,,Europe/Helsinki
101090,2322,Riuttu E,,64.99635000000002,25.24823,3,http://oulunliikenne.fi/2322,0,,Europe/Helsinki
101238,8086,Uusi-Siira E,,64.77720100000002,25.724966,4,http://oulunliikenne.fi/8086,0,,Europe/Helsinki
101501,1265,Ukkolanperän th P,,65.230294,25.362115,3,http://oulunliikenne.fi/1265,0,,Europe/Helsinki
169631,2515,Poikuekuja P,,64.954131,25.536131,2,http://oulunliikenne.fi/2515,0,,Europe/Helsinki
186809,3328,Närhintie P,,65.009749,25.52762,2,http://oulunliikenne.fi/3328,0,,Europe/Helsinki
150142,2912,Selkämaa th P,,64.83338500000002,25.463067,4,http://oulunliikenne.fi/2912,0,,Europe/Helsinki
101622,1441,Hurunmäki E,,65.154118,25.618986,3,http://oulunliikenne.fi/1441,0,,Europe/Helsinki
190179,2338,Riutunkari,,65.008495,25.197361,3,http://oulunliikenne.fi/2338,0,,Europe/Helsinki
150267,1488,Sipolanpisto P,,65.135036,25.624708,3,http://oulunliikenne.fi/1488,0,,Europe/Helsinki
98805,8223,Parpala E,,64.7773,26.2975,5,http://oulunliikenne.fi/8223,0,,Europe/Helsinki
183954,3173,Pesätie E,,64.952219,25.536087,2,http://oulunliikenne.fi/3173,0,,Europe/Helsinki
120433,1657,Sahantie P,,65.085563,25.404139,2,http://oulunliikenne.fi/1657,0,,Europe/Helsinki
120834,2167,Hakakatu E,,65.004732,25.489656,2,http://oulunliikenne.fi/2167,0,,Europe/Helsinki
150148,2829,Tupos E2,,64.864076,25.489265,4,http://oulunliikenne.fi/2829,0,,Europe/Helsinki
101695,1149,Myllytörmä P,,65.322244,25.458666,4,http://oulunliikenne.fi/1149,0,,Europe/Helsinki
148006,3028,Parras P,,64.800349,25.619861,4,http://oulunliikenne.fi/3028,0,,Europe/Helsinki
190671,3344,Hakkuutie P,,64.94641,25.577284,2,http://oulunliikenne.fi/3344,0,,Europe/Helsinki
101231,3059,Ylitalon th P,,64.772151,25.673836,4,http://oulunliikenne.fi/3059,0,,Europe/Helsinki
101094,8308,Sysiperä E,,65.0367,24.9599,5,http://oulunliikenne.fi/8308,0,,Europe/Helsinki
190069,3124,Haapamaantie P,,64.89519,25.545277,3,http://oulunliikenne.fi/3124,0,,Europe/Helsinki
121024,2409,Turkkitie E,,64.971327,25.519666,2,http://oulunliikenne.fi/2409,0,,Europe/Helsinki
121265,2715,Tiilimestarinrinne P,,64.911968,25.559351,3,http://oulunliikenne.fi/2715,0,,Europe/Helsinki
121174,2591,Teeritie P,,64.940569,25.371182,3,http://oulunliikenne.fi/2591,0,,Europe/Helsinki
310723,4016,Tahtimarssi E,,65.0087986006685,25.59774632075199,2,http://oulunliikenne.fi/4016,0,,Europe/Helsinki
150270,1436,Rinnetie E,,65.14818687256334,25.63624673840818,3,http://oulunliikenne.fi/1436,0,,Europe/Helsinki
187930,2931,Sallisentie E,,64.8291,25.244683,4,http://oulunliikenne.fi/2931,0,,Europe/Helsinki
150384,1161,Iin Työväentalo P,,65.321889,25.380203,4,http://oulunliikenne.fi/1161,0,,Europe/Helsinki
120524,1750,Tuulikintie P,,65.062739,25.486945,2,http://oulunliikenne.fi/1750,0,,Europe/Helsinki
101029,2989,Leisu P,,64.814452,25.349913,4,http://oulunliikenne.fi/2989,0,,Europe/Helsinki
150040,3015,Taalintie E,,64.808194,25.439072,4,http://oulunliikenne.fi/3015,0,,Europe/Helsinki
183965,3190,Metsokankaan koulu E,,64.943615,25.542418,2,http://oulunliikenne.fi/3190,0,,Europe/Helsinki
120416,1638,Ojatie P,,65.085036,25.67774,3,http://oulunliikenne.fi/1638,0,,Europe/Helsinki
190185,1891,Parola P,,65.032113,26.052675,4,http://oulunliikenne.fi/1891,0,,Europe/Helsinki
101083,2401,Ervastintörmä E,,64.975369,25.286956,3,http://oulunliikenne.fi/2401,0,,Europe/Helsinki
183978,3185,Otsonkuja P,,64.979773,25.518225,2,http://oulunliikenne.fi/3185,0,,Europe/Helsinki
120935,2296,Lintula,,64.98841400000002,25.50041,2,http://oulunliikenne.fi/2296,0,,Europe/Helsinki
121154,2564,Salavakuja E,,64.94485,25.378579,3,http://oulunliikenne.fi/2564,0,,Europe/Helsinki
150078,2895,Niitynmaa th P,,64.834458,25.670201,4,http://oulunliikenne.fi/2895,0,,Europe/Helsinki
310862,3407,Erämetsä E,,65.089431,25.462608,2,http://oulunliikenne.fi/3407,0,,Europe/Helsinki
101550,1740,Hiirenvirna E,,65.065587,25.411988,2,http://oulunliikenne.fi/1740,0,,Europe/Helsinki
164368,3111,Nupputie P,,65.073103,25.460801,2,http://oulunliikenne.fi/3111,0,,Europe/Helsinki
101559,3224,Tulliväylä P,,65.013538,25.486634,1,http://oulunliikenne.fi/3224,0,,Europe/Helsinki
120446,1672,Itälahdentie P,,65.080208,25.397442,2,http://oulunliikenne.fi/1672,0,,Europe/Helsinki
101638,1493,Putkonen E,,65.131548,25.701271,3,http://oulunliikenne.fi/1493,0,,Europe/Helsinki
120557,1785,Ylioppilaskylä P,,65.05759500000002,25.472469,2,http://oulunliikenne.fi/1785,0,,Europe/Helsinki
101733,1096,H Ylitalo E,,65.342626,25.71434,5,http://oulunliikenne.fi/1096,0,,Europe/Helsinki
101656,1540,Paso E,,65.119372,25.803383,3,http://oulunliikenne.fi/1540,0,,Europe/Helsinki
148115,2494,Heikinniementie E,,64.956428,25.710209,3,http://oulunliikenne.fi/2494,0,,Europe/Helsinki
120481,1707,Talvikkitie E,,65.07266300000002,25.427958,2,http://oulunliikenne.fi/1707,0,,Europe/Helsinki
148434,1355,Harjunkangas P,,65.187373,25.471743,4,http://oulunliikenne.fi/1355,0,,Europe/Helsinki
148180,2782,Sairaalantie E,,64.883809,25.866692,4,http://oulunliikenne.fi/2782,0,,Europe/Helsinki
101299,2854,Paavolankuja E,,64.848349,25.901386,4,http://oulunliikenne.fi/2854,0,,Europe/Helsinki
120666,1955,Tokkatie E,,65.030683,25.552929,2,http://oulunliikenne.fi/1955,0,,Europe/Helsinki
98785,8202,Kärnä E,,64.8056,26.0292,5,http://oulunliikenne.fi/8202,0,,Europe/Helsinki
184153,3236,Raksilan marketit E,,65.010198,25.488201,1,http://oulunliikenne.fi/3236,0,,Europe/Helsinki
98784,8201,Kärnä P,,64.8058,26.0281,5,http://oulunliikenne.fi/8201,0,,Europe/Helsinki
190170,2587,Hailuodon th P,,64.93845,25.428723,3,http://oulunliikenne.fi/2587,0,,Europe/Helsinki
169663,3091,Murron koulu E,,64.841695,25.669844,4,http://oulunliikenne.fi/3091,0,,Europe/Helsinki
97673,3056,Marttila P,,64.777283,25.548266,4,http://oulunliikenne.fi/3056,0,,Europe/Helsinki
101059,2719,Tiilitie P,,64.912391,25.497663,3,http://oulunliikenne.fi/2719,0,,Europe/Helsinki
101626,1449,Rasi E,,65.147209,25.654351,3,http://oulunliikenne.fi/1449,0,,Europe/Helsinki
148431,1362,Isojämsä E,,65.184524,25.48271,4,http://oulunliikenne.fi/1362,0,,Europe/Helsinki
98761,2888,Rönköntie E,,64.835753,25.910939,4,http://oulunliikenne.fi/2888,0,,Europe/Helsinki
150096,8080,Haarankauppa P,,64.784403,25.691721,4,http://oulunliikenne.fi/8080,0,,Europe/Helsinki
101691,1173,Ii Asemankylä P,,65.319923,25.436184,4,http://oulunliikenne.fi/1173,0,,Europe/Helsinki
97710,1251,Praavan th P,,65.282684,25.369344,4,http://oulunliikenne.fi/1251,0,,Europe/Helsinki
98724,2615,Pikkuharjuntie E,,64.930043,25.739538,3,http://oulunliikenne.fi/2615,0,,Europe/Helsinki
120601,1843,Kornetintie P,,65.046281,25.612251,2,http://oulunliikenne.fi/1843,0,,Europe/Helsinki
231891,2538,Paaso E,,64.946697,25.736703,3,http://oulunliikenne.fi/2538,0,,Europe/Helsinki
101726,1114,Alatalo E,,65.335323,25.689168,5,http://oulunliikenne.fi/1114,0,,Europe/Helsinki
121012,2394,Lumijärventie E,,64.97316600000002,25.509737,2,http://oulunliikenne.fi/2394,0,,Europe/Helsinki
304238,2176,Professorintie P,,65.00893201477508,25.50732099580587,2,http://oulunliikenne.fi/2176,0,,Europe/Helsinki
120621,1871,Rannanperä P,,65.042489,25.581891,2,http://oulunliikenne.fi/1871,0,,Europe/Helsinki
101112,8327,Petsamon th E,,65.033,24.7758,5,http://oulunliikenne.fi/8327,0,,Europe/Helsinki
120512,1738,Veitikka E,,65.065421,25.420096,2,http://oulunliikenne.fi/1738,0,,Europe/Helsinki
152734,1521,Kiimingin yläaste E,,65.126184,25.784842,3,http://oulunliikenne.fi/1521,0,,Europe/Helsinki
189521,1620,Hamari E,,65.088752,25.67596,3,http://oulunliikenne.fi/1620,0,,Europe/Helsinki
148460,1301,Vahtola P,,65.207616,25.328878,3,http://oulunliikenne.fi/1301,0,,Europe/Helsinki
148015,3057,Puronkari E,,64.773684,25.644853,4,http://oulunliikenne.fi/3057,0,,Europe/Helsinki
121078,2471,Kivitaskunkuja P,,64.961668,25.560278,2,http://oulunliikenne.fi/2471,0,,Europe/Helsinki
120802,2117,Oulujoen koulu P,,65.008625,25.560464,2,http://oulunliikenne.fi/2117,0,,Europe/Helsinki
152758,1839,Rasilantie P,,65.044091,25.676456,3,http://oulunliikenne.fi/1839,0,,Europe/Helsinki
101091,2321,Riuttu P,,64.996765,25.246878,3,http://oulunliikenne.fi/2321,0,,Europe/Helsinki
148050,2925,Perukka P,,64.820339,26.037828,4,http://oulunliikenne.fi/2925,0,,Europe/Helsinki
150056,2807,Palonperä P,,64.873929,25.582576,3,http://oulunliikenne.fi/2807,0,,Europe/Helsinki
98722,2597,Vanhantien th E,,64.933886,25.717157,3,http://oulunliikenne.fi/2597,0,,Europe/Helsinki
120523,1749,Tuulikintie E,,65.062829,25.486939,2,http://oulunliikenne.fi/1749,0,,Europe/Helsinki
98817,8236,Utajärvi P,,64.7601,26.4136,5,http://oulunliikenne.fi/8236,0,,Europe/Helsinki
171799,2423,Oulunlahden koulu P,,64.968469,25.494857,2,http://oulunliikenne.fi/2423,0,,Europe/Helsinki
120939,2302,Kolehmaisentie E,,64.985385,25.576887,2,http://oulunliikenne.fi/2302,0,,Europe/Helsinki
101016,2958,Mikkola E,,64.820775,25.27307,4,http://oulunliikenne.fi/2958,0,,Europe/Helsinki
120405,1627,Havutie P,,65.08734,25.710595,3,http://oulunliikenne.fi/1627,0,,Europe/Helsinki
148054,2904,Perhekoti P,,64.826725,26.047541,4,http://oulunliikenne.fi/2904,0,,Europe/Helsinki
101554,1779,Pönkänkari P,,65.0596,25.427007,2,http://oulunliikenne.fi/1779,0,,Europe/Helsinki
101694,1152,Paakkola P,,65.323157,25.447925,4,http://oulunliikenne.fi/1152,0,,Europe/Helsinki
189725,2732,Toivanen E,,64.902755,25.839868,3,http://oulunliikenne.fi/2732,0,,Europe/Helsinki
121127,2527,Pesätie PP,,64.952969,25.535686,2,http://oulunliikenne.fi/2527,0,,Europe/Helsinki
101518,1427,Viikki E,,65.16723500000002,25.347446,3,http://oulunliikenne.fi/1427,0,,Europe/Helsinki
120607,1857,Tuiskutie E,,65.044353,25.586443,2,http://oulunliikenne.fi/1857,0,,Europe/Helsinki
308743,2246,Naavakuusi P,,64.978178,25.575998,2,http://oulunliikenne.fi/2246,0,,Europe/Helsinki
101220,3079,Vaaranmaa E,,64.762162,25.565386,4,http://oulunliikenne.fi/3079,0,,Europe/Helsinki
98799,8216,Muhosperä th E,,64.78660000000002,26.1508,5,http://oulunliikenne.fi/8216,0,,Europe/Helsinki
183969,3182,Lähimetsä E,,64.946484,25.570002,2,http://oulunliikenne.fi/3182,0,,Europe/Helsinki
120535,1761,Yliopistokatu E,,65.06102,25.47223,2,http://oulunliikenne.fi/1761,0,,Europe/Helsinki
120323,1534,Honkimaa E,,65.12202600000002,25.746164,3,http://oulunliikenne.fi/1534,0,,Europe/Helsinki
120080,1273,Kalastajantie PP,,65.224676,25.310117,3,http://oulunliikenne.fi/1273,0,,Europe/Helsinki
101634,1477,Tirinkylä E,,65.136408,25.689718,3,http://oulunliikenne.fi/1477,0,,Europe/Helsinki
101542,1601,Herukka P,,65.096581,25.404224,2,http://oulunliikenne.fi/1601,0,,Europe/Helsinki
189673,2636,Lapinkankaan koulu P,,64.92539600000002,25.800179,3,http://oulunliikenne.fi/2636,0,,Europe/Helsinki
120810,2125,Linja-autoasema L,,65.009421,25.484109,2,http://oulunliikenne.fi/2125,0,,Europe/Helsinki
101498,1261,Halosenniemi th E,,65.246465,25.35266,3,http://oulunliikenne.fi/1261,0,,Europe/Helsinki
148123,2530,Turkka E,,64.94936,25.730166,3,http://oulunliikenne.fi/2530,0,,Europe/Helsinki
184234,1082,Hökkä E,,65.353362,25.810391,5,http://oulunliikenne.fi/1082,0,,Europe/Helsinki
150093,3032,Matinolli E,,64.794224,25.683397,4,http://oulunliikenne.fi/3032,0,,Europe/Helsinki
148124,2537,Paaso P,,64.94677900000002,25.736763,3,http://oulunliikenne.fi/2537,0,,Europe/Helsinki
101244,8091,Korkalan th E,,64.77523507678362,25.769123591079,4,http://oulunliikenne.fi/8091,0,,Europe/Helsinki
98721,2599,Vanhantien th P,,64.934719,25.714405,3,http://oulunliikenne.fi/2599,0,,Europe/Helsinki
184168,3221,Matkakeskus E,,65.011023,25.480779,1,http://oulunliikenne.fi/3221,0,,Europe/Helsinki
150386,1230,Jakkuranta E,,65.301007,25.605724,4,http://oulunliikenne.fi/1230,0,,Europe/Helsinki
98493,1701,Välikuja P,,65.070053,25.653379,3,http://oulunliikenne.fi/1701,0,,Europe/Helsinki
120937,2298,Kihokkitie E,,64.988468,25.493287,2,http://oulunliikenne.fi/2298,0,,Europe/Helsinki
189658,3279,Jukurintie P,,64.852688,25.53467,4,http://oulunliikenne.fi/3279,0,,Europe/Helsinki
147996,2896,Peräoja P,,64.836092,25.575442,4,http://oulunliikenne.fi/2896,0,,Europe/Helsinki
121506,1907,Lämpövoimala P,,65.038878,25.442603,2,http://oulunliikenne.fi/1907,0,,Europe/Helsinki
121022,2407,Hanhikaarentie E,,64.970756,25.599923,2,http://oulunliikenne.fi/2407,0,,Europe/Helsinki
181288,3271,Kuovintie E,,64.942219,25.372732,3,http://oulunliikenne.fi/3271,0,,Europe/Helsinki
121195,2619,Riisikuja P,,64.933497,25.401624,3,http://oulunliikenne.fi/2619,0,,Europe/Helsinki
101529,1523,Kello P,,65.12938,25.359323,3,http://oulunliikenne.fi/1523,0,,Europe/Helsinki
120712,2012,Merikoskenkatu P2,,65.024746,25.47021,2,http://oulunliikenne.fi/2012,0,,Europe/Helsinki
101502,1266,Ukkolanperän th E,,65.229249,25.362522,3,http://oulunliikenne.fi/1266,0,,Europe/Helsinki
120875,2213,Merikotka P,,64.996833,25.513443,2,http://oulunliikenne.fi/2213,0,,Europe/Helsinki
120511,1737,Veitikka P,,65.06534000000002,25.419994,2,http://oulunliikenne.fi/1737,0,,Europe/Helsinki
190220,2611,Oulunsalo-talo E,,64.934823,25.398985,3,http://oulunliikenne.fi/2611,0,,Europe/Helsinki
101096,8310,Potti P,,65.0594,24.88,5,http://oulunliikenne.fi/8310,0,,Europe/Helsinki
120590,1823,Rantapellontie E,,65.051157,25.432901,2,http://oulunliikenne.fi/1823,0,,Europe/Helsinki
120658,1943,Huonesuonpuisto E,,65.03342000000002,25.562312,2,http://oulunliikenne.fi/1943,0,,Europe/Helsinki
310861,3406,Erämetsä P,,65.089753,25.462947,2,http://oulunliikenne.fi/3406,0,,Europe/Helsinki
184249,1203,Patosillan th E,,65.31316,25.532698,4,http://oulunliikenne.fi/1203,0,,Europe/Helsinki
301594,3103,Haukiputaan koulu,,65.175157,25.36552,3,http://oulunliikenne.fi/3103,0,,Europe/Helsinki
153079,2954,Hakala P,,64.820152,25.303144,4,http://oulunliikenne.fi/2954,0,,Europe/Helsinki
120837,2171,Kyösti Kallion puisto E,,65.005695,25.458342,2,http://oulunliikenne.fi/2171,0,,Europe/Helsinki
101574,2554,Virtaoja E,,64.945377,25.51818,2,http://oulunliikenne.fi/2554,0,,Europe/Helsinki
147972,2651,Ollila th P,,64.92662,25.507586,3,http://oulunliikenne.fi/2651,0,,Europe/Helsinki
184140,3249,Rautatienkatu E,,65.00957,25.480198,1,http://oulunliikenne.fi/3249,0,,Europe/Helsinki
189659,3280,Jukurintie E,,64.852632,25.534483,4,http://oulunliikenne.fi/3280,0,,Europe/Helsinki
150037,3012,Pajutie E,,64.808193,25.446714,4,http://oulunliikenne.fi/3012,0,,Europe/Helsinki
101532,1545,Kalimensilta E,,65.124192,25.362391,3,http://oulunliikenne.fi/1545,0,,Europe/Helsinki
120797,2110,Elokuvakeskus,,65.01122700000002,25.466784,2,http://oulunliikenne.fi/2110,0,,Europe/Helsinki
121010,2392,Kaskiahontie E,,64.97155,25.587068,2,http://oulunliikenne.fi/2392,0,,Europe/Helsinki
101708,1210,Piste E,,65.311354,25.580164,4,http://oulunliikenne.fi/1210,0,,Europe/Helsinki
190226,2417,Mustaniemi E,,64.972284,25.265315,3,http://oulunliikenne.fi/2417,0,,Europe/Helsinki
101734,1090,Suvanto P,,65.34461400000002,25.725498,5,http://oulunliikenne.fi/1090,0,,Europe/Helsinki
231888,2934,Toivolakoti E,,64.81662437009102,26.02955075414427,4,http://oulunliikenne.fi/2934,0,,Europe/Helsinki
147999,2909,Ritokorpi E,,64.831042,25.583041,4,http://oulunliikenne.fi/2909,0,,Europe/Helsinki
190173,2710,Kirkonmäki E,,64.914164,25.486764,3,http://oulunliikenne.fi/2710,0,,Europe/Helsinki
97688,1367,Jokela E,,65.182487,25.503278,4,http://oulunliikenne.fi/1367,0,,Europe/Helsinki
120866,2204,Svaanintie E,,64.999402,25.532805,2,http://oulunliikenne.fi/2204,0,,Europe/Helsinki
150065,2837,Hovimurto E,,64.859113,25.612566,3,http://oulunliikenne.fi/2837,0,,Europe/Helsinki
120683,1977,Hartaantie E,,65.02795500000002,25.456888,2,http://oulunliikenne.fi/1977,0,,Europe/Helsinki
188000,1133,Marion E,,65.326495,25.519377,4,http://oulunliikenne.fi/1133,0,,Europe/Helsinki
148452,1327,Siikasaari E,,65.194641,25.34815,3,http://oulunliikenne.fi/1327,0,,Europe/Helsinki
101678,1055,Leuvanjoen th P,,65.371166,25.83547,5,http://oulunliikenne.fi/1055,0,,Europe/Helsinki
101007,2933,Vesankuja P,,64.830716,25.234127,4,http://oulunliikenne.fi/2933,0,,Europe/Helsinki
152733,1520,Kiimingin yläaste P,,65.126248,25.784967,3,http://oulunliikenne.fi/1520,0,,Europe/Helsinki
120882,2220,Karjasillan kirkko E,,64.997061,25.490492,2,http://oulunliikenne.fi/2220,0,,Europe/Helsinki
150081,2917,Huovinen E,,64.829911,25.679379,4,http://oulunliikenne.fi/2917,0,,Europe/Helsinki
148170,2746,Ehtiäisentie E,,64.899308,25.845382,3,http://oulunliikenne.fi/2746,0,,Europe/Helsinki
121090,2483,Sadekuja E,,64.959166,25.552897,2,http://oulunliikenne.fi/2483,0,,Europe/Helsinki
121000,2378,Etelärata E,,64.975006,25.497243,2,http://oulunliikenne.fi/2378,0,,Europe/Helsinki
120534,1760,Yliopistokatu P,,65.061022,25.472464,2,http://oulunliikenne.fi/1760,0,,Europe/Helsinki
120488,1714,Vesipääskyntie E,,65.069008,25.517241,2,http://oulunliikenne.fi/1714,0,,Europe/Helsinki
120385,1606,Jäälin ostoskeskus E,,65.091979,25.692117,3,http://oulunliikenne.fi/1606,0,,Europe/Helsinki
171367,2707,Kunnantalo E,,64.912586,25.508635,3,http://oulunliikenne.fi/2707,0,,Europe/Helsinki
148010,3040,Salosentie P,,64.789586,25.627837,4,http://oulunliikenne.fi/3040,0,,Europe/Helsinki
120656,1937,Alppila P,,65.034983,25.465016,2,http://oulunliikenne.fi/1937,0,,Europe/Helsinki
184123,3266,Limingantulli,,64.99517973117474,25.4619791894876,1,http://oulunliikenne.fi/3266,0,,Europe/Helsinki
148003,2949,Nikula th E,,64.818883,25.60257,4,http://oulunliikenne.fi/2949,0,,Europe/Helsinki
101278,1942,Rokkarannantie E,,65.02847,25.978002,4,http://oulunliikenne.fi/1942,0,,Europe/Helsinki
101227,3073,Keskikyläntie E,,64.762463,25.637283,4,http://oulunliikenne.fi/3073,0,,Europe/Helsinki
101289,1895,Linnakekuja E,,65.03186700000002,26.058166,4,http://oulunliikenne.fi/1895,0,,Europe/Helsinki
169657,3093,Pohjoisranta E,,64.834015,25.684951,4,http://oulunliikenne.fi/3093,0,,Europe/Helsinki
101729,1103,Ylitalo P,,65.338464,25.699706,5,http://oulunliikenne.fi/1103,0,,Europe/Helsinki
120084,1277,Heinonpolku P,,65.22227700000002,25.301012,3,http://oulunliikenne.fi/1277,0,,Europe/Helsinki
164185,3118,Toppilansaarentie E,,65.032492,25.42818,2,http://oulunliikenne.fi/3118,0,,Europe/Helsinki
120527,1753,Yliopiston puutarha P,,65.062805,25.467006,2,http://oulunliikenne.fi/1753,0,,Europe/Helsinki
120962,2329,Repolaisentie E,,64.983392,25.521351,2,http://oulunliikenne.fi/2329,0,,Europe/Helsinki
101721,1126,Viitakangas P,,65.329466,25.659665,5,http://oulunliikenne.fi/1126,0,,Europe/Helsinki
188499,1932,Porotie E,,65.034109,25.540791,2,http://oulunliikenne.fi/1932,0,,Europe/Helsinki
184238,1123,Manninen E,,65.330493,25.691813,5,http://oulunliikenne.fi/1123,0,,Europe/Helsinki
186033,3315,Urpiaisentie E2,,65.070585,25.519747,2,http://oulunliikenne.fi/3315,0,,Europe/Helsinki
101288,1898,Parolanmäki E,,65.032602,26.048185,4,http://oulunliikenne.fi/1898,0,,Europe/Helsinki
120806,2121,Oulunsuun koulu P,,65.007738,25.528361,2,http://oulunliikenne.fi/2121,0,,Europe/Helsinki
101646,1479,Kirkonniementie E,,65.132598,25.761752,3,http://oulunliikenne.fi/1479,0,,Europe/Helsinki
184144,3245,Kiviharjuntie E,,65.009335,25.508548,1,http://oulunliikenne.fi/3245,0,,Europe/Helsinki
150057,2808,Palonperä E,,64.873231,25.583647,3,http://oulunliikenne.fi/2808,0,,Europe/Helsinki
120213,1418,Hukantie P,,65.173596,25.349141,3,http://oulunliikenne.fi/1418,0,,Europe/Helsinki
171801,2411,Vesalantie P,,64.971585,25.490763,2,http://oulunliikenne.fi/2411,0,,Europe/Helsinki
189532,2971,Kellotie P,,64.80985200000002,25.983872,4,http://oulunliikenne.fi/2971,0,,Europe/Helsinki
187924,2913,Jokivainio E,,64.83642124263666,25.20056372783477,4,http://oulunliikenne.fi/2913,0,,Europe/Helsinki
120618,1868,Huurrekuja P,,65.041849,25.602607,2,http://oulunliikenne.fi/1868,0,,Europe/Helsinki
148159,2670,Riihipellontie E,,64.917846,25.817362,3,http://oulunliikenne.fi/2670,0,,Europe/Helsinki
101277,1941,Rokkarannantie P,,65.028646,25.977422,4,http://oulunliikenne.fi/1941,0,,Europe/Helsinki
307141,3367,Pirttilä P,,64.940943,25.559472,2,http://oulunliikenne.fi/3367,0,,Europe/Helsinki
187997,1150,Myllytörmä E,,65.32229700000002,25.456775,4,http://oulunliikenne.fi/1150,0,,Europe/Helsinki
120820,2149,OYS B2,,65.006993,25.520237,2,http://oulunliikenne.fi/2149,0,,Europe/Helsinki
150054,2796,Pyykönmutka P,,64.879525,25.579579,3,http://oulunliikenne.fi/2796,0,,Europe/Helsinki
120732,2037,Kurkelankuja P,,65.02049,25.514312,2,http://oulunliikenne.fi/2037,0,,Europe/Helsinki
148018,3065,Tyrnävän yläaste P,,64.766632,25.649768,4,http://oulunliikenne.fi/3065,0,,Europe/Helsinki
14040,1547,Runttilantie P,,65.088249,25.832327,3,http://oulunliikenne.fi/1547,0,,Europe/Helsinki
183983,3196,Palhokuja E,,65.07159900000002,25.447154,2,http://oulunliikenne.fi/3196,0,,Europe/Helsinki
120699,1996,Vellamontie P,,65.027484,25.421194,2,http://oulunliikenne.fi/1996,0,,Europe/Helsinki
321615,3154,Honkitie P,,64.80601900000002,25.421973,4,http://oulunliikenne.fi/3154,0,,Europe/Helsinki
310820,3352,Jokivarrentie,,65.201358,25.485619,4,http://oulunliikenne.fi/3352,0,,Europe/Helsinki
148229,2847,Kieksi E,,64.848028,26.017044,4,http://oulunliikenne.fi/2847,0,,Europe/Helsinki
98788,8205,Laitilantie P,,64.7938,26.0655,5,http://oulunliikenne.fi/8205,0,,Europe/Helsinki
121023,2408,Oritputaantie PP,,64.970951,25.577844,2,http://oulunliikenne.fi/2408,0,,Europe/Helsinki
101493,1258,Pitäjänraja P,,65.259616,25.357557,4,http://oulunliikenne.fi/1258,0,,Europe/Helsinki
148224,2880,Koskela P,,64.8363,26.002955,4,http://oulunliikenne.fi/2880,0,,Europe/Helsinki
150265,1495,Nurmioja P,,65.132092,25.620557,3,http://oulunliikenne.fi/1495,0,,Europe/Helsinki
101617,1415,Mannintie P,,65.170739,25.594585,4,http://oulunliikenne.fi/1415,0,,Europe/Helsinki
101513,1406,Haukipudas P,,65.177114,25.354109,3,http://oulunliikenne.fi/1406,0,,Europe/Helsinki
120396,1617,Timolantie E,,65.094462,25.420181,2,http://oulunliikenne.fi/1617,0,,Europe/Helsinki
148440,1312,Torvelantie E,,65.199951,25.397744,3,http://oulunliikenne.fi/1312,0,,Europe/Helsinki
187928,2922,Vesankuja E,,64.83075,25.233281,4,http://oulunliikenne.fi/2922,0,,Europe/Helsinki
120566,1794,Palloiluhalli E,,65.05565900000002,25.474428,2,http://oulunliikenne.fi/1794,0,,Europe/Helsinki
120439,1665,Palosuontie P,,65.078942,25.425248,2,http://oulunliikenne.fi/1665,0,,Europe/Helsinki
101129,8344,Pölläntie P,,65.00790000000002,24.7018,5,http://oulunliikenne.fi/8344,0,,Europe/Helsinki
307154,3292,Hallituskatu E,,65.011637,25.47852,1,http://oulunliikenne.fi/3292,0,,Europe/Helsinki
121152,2563,Salavakuja P,,64.94460100000002,25.379718,3,http://oulunliikenne.fi/2563,0,,Europe/Helsinki
120309,1514,Sammalkuja E,,65.127959,25.761648,3,http://oulunliikenne.fi/1514,0,,Europe/Helsinki
120661,1946,Karhitie E,,65.034599,25.481937,2,http://oulunliikenne.fi/1946,0,,Europe/Helsinki
98769,2920,Tyrnävän th E,,64.824161,25.935333,4,http://oulunliikenne.fi/2920,0,,Europe/Helsinki
121272,2724,Kokkokaarto E,,64.90982,25.547845,3,http://oulunliikenne.fi/2724,0,,Europe/Helsinki
120941,2304,Patamäki P,,64.985596,25.569777,2,http://oulunliikenne.fi/2304,0,,Europe/Helsinki
150364,1295,Kropsu P,,65.20956,25.330209,3,http://oulunliikenne.fi/1295,0,,Europe/Helsinki
101630,1451,Kanniainen E,,65.144977,25.666508,3,http://oulunliikenne.fi/1451,0,,Europe/Helsinki
152840,2169,Harjapuisto P,,65.004498,25.464922,2,http://oulunliikenne.fi/2169,0,,Europe/Helsinki
101128,8343,Pölläntie E,,65.0081,24.7039,5,http://oulunliikenne.fi/8343,0,,Europe/Helsinki
98509,1535,Honkimaa P,,65.122441,25.747465,3,http://oulunliikenne.fi/1535,0,,Europe/Helsinki
184258,1232,Leskelä E,,65.302523,25.561769,4,http://oulunliikenne.fi/1232,0,,Europe/Helsinki
152757,1838,Rasilantie E,,65.04395,25.678778,3,http://oulunliikenne.fi/1838,0,,Europe/Helsinki
120140,1345,Jokikylä P,,65.19095900000002,25.467094,4,http://oulunliikenne.fi/1345,0,,Europe/Helsinki
120958,2325,Metsärinne P,,64.981903,25.58239,2,http://oulunliikenne.fi/2325,0,,Europe/Helsinki
120817,2144,Kastellin kirkko P,,65.006567,25.539771,2,http://oulunliikenne.fi/2144,0,,Europe/Helsinki
120528,1754,Yliopiston puutarha E,,65.062752,25.467073,2,http://oulunliikenne.fi/1754,0,,Europe/Helsinki
120675,1964,Mittamiehentie E,,65.032708,25.464468,2,http://oulunliikenne.fi/1964,0,,Europe/Helsinki
101699,1141,Ylirannan koulu P,,65.324585,25.481602,4,http://oulunliikenne.fi/1141,0,,Europe/Helsinki
191530,3283,Ylikiimingin th E,,65.063296,25.633404,2,http://oulunliikenne.fi/3283,0,,Europe/Helsinki
120961,2328,Repolaisentie P,,64.983985,25.521445,2,http://oulunliikenne.fi/2328,0,,Europe/Helsinki
120860,2198,Karjaportti P,,65.001072,25.491453,2,http://oulunliikenne.fi/2198,0,,Europe/Helsinki
150045,2744,Zeppelin P,,64.903762,25.540292,3,http://oulunliikenne.fi/2744,0,,Europe/Helsinki
120091,1290,Repolantie P,,65.212757,25.308869,3,http://oulunliikenne.fi/1290,0,,Europe/Helsinki
101125,8340,Hailuoto E,,65.0144,24.7317,5,http://oulunliikenne.fi/8340,0,,Europe/Helsinki
120691,1988,Hoikantie P,,65.025851,25.497757,2,http://oulunliikenne.fi/1988,0,,Europe/Helsinki
190294,1553,Apajatie P,,65.120471,25.341321,3,http://oulunliikenne.fi/1553,0,,Europe/Helsinki
148445,1325,Tuohilaakso P,,65.194503,25.37411,3,http://oulunliikenne.fi/1325,0,,Europe/Helsinki
98757,2857,Riihikyläntie E,,64.847259,25.899576,4,http://oulunliikenne.fi/2857,0,,Europe/Helsinki
190335,2982,Parras th E,,64.813423,25.487492,4,http://oulunliikenne.fi/2982,0,,Europe/Helsinki
120805,2120,Kastellinpolku E,,65.00779,25.533723,2,http://oulunliikenne.fi/2120,0,,Europe/Helsinki
120617,1867,Huurrekuja E,,65.04182900000002,25.601419,2,http://oulunliikenne.fi/1867,0,,Europe/Helsinki
150153,2874,Pikkarala th E,,64.84358,25.652045,4,http://oulunliikenne.fi/2874,0,,Europe/Helsinki
148503,1131,Alaranta E,,65.32956,25.298024,4,http://oulunliikenne.fi/1131,0,,Europe/Helsinki
120689,1983,Karttatie P,,65.02613,25.546851,2,http://oulunliikenne.fi/1983,0,,Europe/Helsinki
230852,3003,Pitkäkoski E2,,64.80814,25.455348,4,http://oulunliikenne.fi/3003,0,,Europe/Helsinki
98480,1872,Korvensuoran koulu P,,65.041571,25.565631,2,http://oulunliikenne.fi/1872,0,,Europe/Helsinki
101035,3024,Myllykuja P,,64.808558,25.3908,4,http://oulunliikenne.fi/3024,0,,Europe/Helsinki
98797,8214,Hyrkäs E,,64.789,26.1351,5,http://oulunliikenne.fi/8214,0,,Europe/Helsinki
120568,1798,Pohjantie P,,65.055817,25.45483,2,http://oulunliikenne.fi/1798,0,,Europe/Helsinki
121048,2437,Kaiposenniementie P,,64.963983,25.66947,3,http://oulunliikenne.fi/2437,0,,Europe/Helsinki
98497,1640,Peltotie P,,65.085034,25.672487,3,http://oulunliikenne.fi/1640,0,,Europe/Helsinki
98758,2860,Nokiantie P,,64.845279,25.90109,4,http://oulunliikenne.fi/2860,0,,Europe/Helsinki
101659,1562,Sinkontie P,,65.11043600000002,25.809894,3,http://oulunliikenne.fi/1562,0,,Europe/Helsinki
121194,2618,Oulunsalo E,,64.934566,25.41019,3,http://oulunliikenne.fi/2618,0,,Europe/Helsinki
120414,1636,Laivakangas P2,,65.086255,25.684762,3,http://oulunliikenne.fi/1636,0,,Europe/Helsinki
101693,1151,Paakkola E,,65.323163,25.445049,4,http://oulunliikenne.fi/1151,0,,Europe/Helsinki
101049,2574,Vihiluoto E,,64.942246,25.45025,3,http://oulunliikenne.fi/2574,0,,Europe/Helsinki
189724,2721,Hepo-oja E,,64.906678,25.833361,3,http://oulunliikenne.fi/2721,0,,Europe/Helsinki
231892,2546,Kaitajärvi E,,64.94436,25.741425,3,http://oulunliikenne.fi/2546,0,,Europe/Helsinki
120821,2150,Ratakatu E,,65.007049,25.482887,2,http://oulunliikenne.fi/2150,0,,Europe/Helsinki
148149,2631,Savikunnaksentie E,,64.926609,25.797102,3,http://oulunliikenne.fi/2631,0,,Europe/Helsinki
120862,2200,Kollaanpuisto P,,65.001858,25.48051,2,http://oulunliikenne.fi/2200,0,,Europe/Helsinki
120734,2039,Siilasvuonkatu E,,65.021165,25.501967,2,http://oulunliikenne.fi/2039,0,,Europe/Helsinki
101698,1142,Pakanen P,,65.323798,25.473771,4,http://oulunliikenne.fi/1142,0,,Europe/Helsinki
120547,1773,Teknologiantie E,,65.059622,25.456734,2,http://oulunliikenne.fi/1773,0,,Europe/Helsinki
120829,2162,Sarkkapuisto P,,65.005151,25.52986,2,http://oulunliikenne.fi/2162,0,,Europe/Helsinki
169655,2492,Salonpää PP,,64.963368,25.241013,3,http://oulunliikenne.fi/2492,0,,Europe/Helsinki
97699,2827,Tupos th P,,64.86412300000002,25.502785,4,http://oulunliikenne.fi/2827,0,,Europe/Helsinki
101707,1201,Pikkulaurila P,,65.312372,25.562626,4,http://oulunliikenne.fi/1201,0,,Europe/Helsinki
148497,1207,Räinä E,,65.315303,25.340527,4,http://oulunliikenne.fi/1207,0,,Europe/Helsinki
44469,2838,Tupos Koulukeskus E,,64.859208,25.471189,4,http://oulunliikenne.fi/2838,0,,Europe/Helsinki
101720,1128,Viitakangas E,,65.328897,25.65817,5,http://oulunliikenne.fi/1128,0,,Europe/Helsinki
150053,2794,Keinäsentie E,,64.882755,25.57392,3,http://oulunliikenne.fi/2794,0,,Europe/Helsinki
150398,1248,Mäntyläntie E,,65.291771,25.66859,5,http://oulunliikenne.fi/1248,0,,Europe/Helsinki
148008,3036,Kasvi P,,64.79430000000002,25.624462,4,http://oulunliikenne.fi/3036,0,,Europe/Helsinki
120539,1765,Elektroniikkatie 5E,,65.061573,25.438898,2,http://oulunliikenne.fi/1765,0,,Europe/Helsinki
148004,2962,Ängeslevä th P,,64.816354,25.608345,4,http://oulunliikenne.fi/2962,0,,Europe/Helsinki
120631,1888,Niittyarontie E,,65.041498,25.452176,2,http://oulunliikenne.fi/1888,0,,Europe/Helsinki
148160,2680,Anttosentie E,,64.912656,25.824712,3,http://oulunliikenne.fi/2680,0,,Europe/Helsinki
120758,2063,Makasiinikatu P,,65.018301,25.482205,2,http://oulunliikenne.fi/2063,0,,Europe/Helsinki
120819,2148,OYS B3,,65.005791,25.520155,2,http://oulunliikenne.fi/2148,0,,Europe/Helsinki
189720,2648,Välitalonkuja E,,64.922673,25.806241,3,http://oulunliikenne.fi/2648,0,,Europe/Helsinki
98755,2840,Keränen E,,64.85281500000002,25.896291,4,http://oulunliikenne.fi/2840,0,,Europe/Helsinki
101676,1058,Halajärventie P,,65.368757,25.825624,5,http://oulunliikenne.fi/1058,0,,Europe/Helsinki
120447,1673,Itälahdentie E,,65.080342,25.397413,2,http://oulunliikenne.fi/1673,0,,Europe/Helsinki
190369,2984,Haaransilta E,,64.812714,25.479594,4,http://oulunliikenne.fi/2984,0,,Europe/Helsinki
98801,8218,Pyhänsivu th E,,64.7859,26.2476,5,http://oulunliikenne.fi/8218,0,,Europe/Helsinki
183960,3175,Ukkoherrantie E,,64.950077,25.543569,2,http://oulunliikenne.fi/3175,0,,Europe/Helsinki
147997,2897,Peräoja E,,64.834999,25.576533,4,http://oulunliikenne.fi/2897,0,,Europe/Helsinki
148102,2405,Korhosenkuja P,,64.96961,25.65282,2,http://oulunliikenne.fi/2405,0,,Europe/Helsinki
189675,2647,Välitalonkuja P,,64.922939,25.805891,3,http://oulunliikenne.fi/2647,0,,Europe/Helsinki
120536,1762,Yliopiston eläintarha E,,65.06175,25.458588,2,http://oulunliikenne.fi/1762,0,,Europe/Helsinki
120628,1885,Leväsuontie P,,65.03962900000002,25.578369,2,http://oulunliikenne.fi/1885,0,,Europe/Helsinki
120920,2279,Viriänpuisto P,,64.989781,25.562835,2,http://oulunliikenne.fi/2279,0,,Europe/Helsinki
101586,2655,Niemeläntie P,,64.916256,25.509443,3,http://oulunliikenne.fi/2655,0,,Europe/Helsinki
150248,1815,Syynimaa P,,65.052492,25.477031,2,http://oulunliikenne.fi/1815,0,,Europe/Helsinki
101700,1138,Yliranta E,,65.324671,25.494647,4,http://oulunliikenne.fi/1138,0,,Europe/Helsinki
150393,1239,Päkkilä P,,65.29610700000002,25.632846,4,http://oulunliikenne.fi/1239,0,,Europe/Helsinki
150061,2820,Rasila E,,64.866634,25.599415,3,http://oulunliikenne.fi/2820,0,,Europe/Helsinki
101229,3068,Tyrnävän kirkko E,,64.764962,25.656535,4,http://oulunliikenne.fi/3068,0,,Europe/Helsinki
169844,3144,Pikku Karhu P,,65.041136,25.61271,2,http://oulunliikenne.fi/3144,0,,Europe/Helsinki
120825,2154,Pohjankartano P,,65.006299,25.480533,2,http://oulunliikenne.fi/2154,0,,Europe/Helsinki
150400,1245,Ojalantie E,,65.29218,25.685546,5,http://oulunliikenne.fi/1245,0,,Europe/Helsinki
150160,2562,Lassila P,,64.945458,25.399281,3,http://oulunliikenne.fi/2562,0,,Europe/Helsinki
120907,2253,Nokela th E,,64.994519,25.487519,2,http://oulunliikenne.fi/2253,0,,Europe/Helsinki
120611,1861,Kivennuoliainen E,,65.044678,25.485824,2,http://oulunliikenne.fi/1861,0,,Europe/Helsinki
150086,2961,Marjakangas P,,64.814,25.703192,4,http://oulunliikenne.fi/2961,0,,Europe/Helsinki
184157,3232,Veteraanikatu P,,65.018942,25.506632,1,http://oulunliikenne.fi/3232,0,,Europe/Helsinki
97701,2816,Isoaukio P,,64.871194,25.507476,3,http://oulunliikenne.fi/2816,0,,Europe/Helsinki
101110,8325,Simolankangas P,,65.0393,24.7754,5,http://oulunliikenne.fi/8325,0,,Europe/Helsinki
191964,3347,Neitsytkorventie PP,,64.947069,25.583407,2,http://oulunliikenne.fi/3347,0,,Europe/Helsinki
189529,2704,Jauholantie P,,64.909845,25.777505,3,http://oulunliikenne.fi/2704,0,,Europe/Helsinki
190221,2622,Oulunsalo-talo P,,64.936602,25.398329,3,http://oulunliikenne.fi/2622,0,,Europe/Helsinki
98791,8208,Suokylä th E,,64.7926,26.0772,5,http://oulunliikenne.fi/8208,0,,Europe/Helsinki
120119,1323,Haukiputaan ammattikoulu E,,65.194024,25.411515,4,http://oulunliikenne.fi/1323,0,,Europe/Helsinki
190216,2830,Tupos E,,64.863641,25.49064,4,http://oulunliikenne.fi/2830,0,,Europe/Helsinki
148048,2926,Perukka E,,64.821145,26.040515,4,http://oulunliikenne.fi/2926,0,,Europe/Helsinki
101032,2986,Rantakylä th E,,64.81390500000002,25.360433,4,http://oulunliikenne.fi/2986,0,,Europe/Helsinki
121053,2443,Tiaisrinne E,,64.96424,25.555376,2,http://oulunliikenne.fi/2443,0,,Europe/Helsinki
120441,1667,Raamitie P,,65.078965,25.418144,2,http://oulunliikenne.fi/1667,0,,Europe/Helsinki
188497,1931,Porotie P,,65.033695,25.540665,2,http://oulunliikenne.fi/1931,0,,Europe/Helsinki
310858,3403,Kettumetsä E,,65.083411,25.464874,2,http://oulunliikenne.fi/3403,0,,Europe/Helsinki
120714,2014,Merikoskenkatu E1,,65.024828,25.469483,2,http://oulunliikenne.fi/2014,0,,Europe/Helsinki
101014,2950,Letontie E,,64.82319,25.260971,4,http://oulunliikenne.fi/2950,0,,Europe/Helsinki
120873,2211,Rantasaarela P,,64.99788100000002,25.573042,2,http://oulunliikenne.fi/2211,0,,Europe/Helsinki
308261,3312,Oravanreitti P,,65.080643,25.464218,2,http://oulunliikenne.fi/3312,0,,Europe/Helsinki
121542,1623,Vaunumiehenkuja E,,65.091379,25.42213,2,http://oulunliikenne.fi/1623,0,,Europe/Helsinki
307265,8349,Marjaniemi PP,,65.0403,24.5629,5,http://oulunliikenne.fi/8349,0,,Europe/Helsinki
308265,2750,Kitulankuja P,,64.900454,25.542478,3,http://oulunliikenne.fi/2750,0,,Europe/Helsinki
184251,1214,Paasonperä E,,65.311369,25.481398,4,http://oulunliikenne.fi/1214,0,,Europe/Helsinki
120852,2190,Radiomastontie P,,65.00164700000002,25.530265,2,http://oulunliikenne.fi/2190,0,,Europe/Helsinki
101536,1572,Holstinmäki E,,65.113015,25.383137,3,http://oulunliikenne.fi/1572,0,,Europe/Helsinki
101719,1132,Niskala th P,,65.323887,25.648574,5,http://oulunliikenne.fi/1132,0,,Europe/Helsinki
148178,2772,Käpykankaantie E,,64.887075,25.862057,4,http://oulunliikenne.fi/2772,0,,Europe/Helsinki
120792,2104,Laita E,,65.010525,25.555696,2,http://oulunliikenne.fi/2104,0,,Europe/Helsinki
147970,2998,Niittypirtti E,,64.81147300000002,25.419955,4,http://oulunliikenne.fi/2998,0,,Europe/Helsinki
190193,2556,Virtaoja P,,64.946821,25.517275,2,http://oulunliikenne.fi/2556,0,,Europe/Helsinki
97683,3030,Lampola P,,64.802522,25.513212,4,http://oulunliikenne.fi/3030,0,,Europe/Helsinki
188505,1858,Korvensuora E,,65.04401300000002,25.572402,2,http://oulunliikenne.fi/1858,0,,Europe/Helsinki
120496,1722,Karjakenttä P,,65.06817700000002,25.490653,2,http://oulunliikenne.fi/1722,0,,Europe/Helsinki
101589,2730,Vanhapappila P,,64.90765500000002,25.520198,3,http://oulunliikenne.fi/2730,0,,Europe/Helsinki
98699,2194,Huuhkajapuisto E,,65.001672,25.515506,2,http://oulunliikenne.fi/2194,0,,Europe/Helsinki
98502,1588,Jäälinjärvi E,,65.10064,25.690457,3,http://oulunliikenne.fi/1588,0,,Europe/Helsinki
120584,1817,Suolamännyntie E,,65.052939,25.430034,2,http://oulunliikenne.fi/1817,0,,Europe/Helsinki
120296,1500,Kiimingin keskustan th P,,65.129318,25.781951,3,http://oulunliikenne.fi/1500,0,,Europe/Helsinki
190169,2522,Lentokentän th P2,,64.955045,25.503464,2,http://oulunliikenne.fi/2522,0,,Europe/Helsinki
101510,1353,Törmäntie E,,65.189621,25.364864,3,http://oulunliikenne.fi/1353,0,,Europe/Helsinki
120777,2087,Toripakka E,,65.01328336243668,25.46963132336373,2,http://oulunliikenne.fi/2087,0,,Europe/Helsinki
101126,8341,Koulukeskus E,,65.0104,24.7174,5,http://oulunliikenne.fi/8341,0,,Europe/Helsinki
101629,1452,Kanniainen P,,65.145617,25.664856,3,http://oulunliikenne.fi/1452,0,,Europe/Helsinki
120577,1810,Välskärintie P,,65.05046,25.605364,2,http://oulunliikenne.fi/1810,0,,Europe/Helsinki
307213,1962,Kiulukangas P,,65.028446,25.574196,2,http://oulunliikenne.fi/1962,0,,Europe/Helsinki
101106,8321,Töyrä P,,65.051,24.7872,5,http://oulunliikenne.fi/8321,0,,Europe/Helsinki
115888,2846,Kotilehto P,,64.855788,25.478912,4,http://oulunliikenne.fi/2846,0,,Europe/Helsinki
120703,2001,Hintanmutka P,,65.024763,25.525428,2,http://oulunliikenne.fi/2001,0,,Europe/Helsinki
101627,1448,Toivola P,,65.146807,25.659509,3,http://oulunliikenne.fi/1448,0,,Europe/Helsinki
148206,2865,Nuolikivi E,,64.844262,25.921408,4,http://oulunliikenne.fi/2865,0,,Europe/Helsinki
98747,2805,Rova th E,,64.868963,25.869047,4,http://oulunliikenne.fi/2805,0,,Europe/Helsinki
101579,2608,Hakamaa P,,64.935109,25.512296,3,http://oulunliikenne.fi/2608,0,,Europe/Helsinki
169675,3141,Haukiputaan ammattikoulu,,65.196214,25.413285,4,http://oulunliikenne.fi/3141,0,,Europe/Helsinki
150193,2735,Köykkyrintie E,,64.906126,25.54534,3,http://oulunliikenne.fi/2735,0,,Europe/Helsinki
98764,2901,Huovisentie P,,64.83033,25.921333,4,http://oulunliikenne.fi/2901,0,,Europe/Helsinki
307193,3322,Klippatie E,,65.08431389,25.44672778,2,http://oulunliikenne.fi/3322,0,,Europe/Helsinki
184145,3244,Kiviharjuntie P,,65.00924002742056,25.50880805745451,1,http://oulunliikenne.fi/3244,0,,Europe/Helsinki
148053,2905,Pohjolantie E,,64.826441,26.046646,4,http://oulunliikenne.fi/2905,0,,Europe/Helsinki
98505,1580,Putkonen th P,,65.104705,25.699942,3,http://oulunliikenne.fi/1580,0,,Europe/Helsinki
150068,2850,Kälkäinen P,,64.852688,25.627826,3,http://oulunliikenne.fi/2850,0,,Europe/Helsinki
120855,2193,Svaanin th E,,65.001637,25.528293,2,http://oulunliikenne.fi/2193,0,,Europe/Helsinki
